{
"type": "FeatureCollection",
"name": "estacion-tren",
"crs": { "type": "name", "properties": { "name": "urn:ogc:def:crs:OGC:1.3:CRS84" } },
"xy_coordinate_resolution": 1e-06,
"features": [
{ "type": "Feature", "properties": { "fid": 1, "full_id": "n172522965", "osm_id": 172522965, "railway": "station", "train": null, "operator:en": null, "official_name:ja-Latn": null, "public_transport": "station", "operator": "東日本旅客鉄道", "name:en": "Shin-Koyasu", "name": "新子安", "longitud": 139.654, "latitud": 35.487, "station": null }, "geometry": { "type": "Point", "coordinates": [ 139.654, 35.487 ] } },
{ "type": "Feature", "properties": { "fid": 2, "full_id": "n172670767", "osm_id": 172670767, "railway": "station", "train": true, "operator:en": "Keisei Electric Railway", "official_name:ja-Latn": "Keiseidentetsu Nippori", "public_transport": "station", "operator": "京成電鉄", "name:en": "Nippori", "name": "日暮里", "longitud": 139.771, "latitud": 35.728, "station": null }, "geometry": { "type": "Point", "coordinates": [ 139.771, 35.728 ] } },
{ "type": "Feature", "properties": { "fid": 3, "full_id": "n184202324", "osm_id": 184202324, "railway": "station", "train": null, "operator:en": null, "official_name:ja-Latn": null, "public_transport": null, "operator": null, "name:en": "Chikabumi", "name": "近文", "longitud": 142.326, "latitud": 43.789, "station": null }, "geometry": { "type": "Point", "coordinates": [ 142.326, 43.789 ] } },
{ "type": "Feature", "properties": { "fid": 4, "full_id": "n206431759", "osm_id": 206431759, "railway": "station", "train": true, "operator:en": null, "official_name:ja-Latn": null, "public_transport": "station", "operator": null, "name:en": "Fukushima", "name": "福島", "longitud": 140.459, "latitud": 37.755, "station": null }, "geometry": { "type": "Point", "coordinates": [ 140.459, 37.755 ] } },
{ "type": "Feature", "properties": { "fid": 5, "full_id": "n236578383", "osm_id": 236578383, "railway": "station", "train": true, "operator:en": "East Japan Railway Company", "official_name:ja-Latn": null, "public_transport": "station", "operator": "東日本旅客鉄道", "name:en": "Okachimachi", "name": "御徒町", "longitud": 139.775, "latitud": 35.707, "station": null }, "geometry": { "type": "Point", "coordinates": [ 139.775, 35.707 ] } },
{ "type": "Feature", "properties": { "fid": 6, "full_id": "n236578444", "osm_id": 236578444, "railway": "station", "train": true, "operator:en": "East Japan Railway Company", "official_name:ja-Latn": null, "public_transport": "station", "operator": "東日本旅客鉄道", "name:en": "Ueno", "name": "上野", "longitud": 139.777, "latitud": 35.713, "station": null }, "geometry": { "type": "Point", "coordinates": [ 139.777, 35.713 ] } },
{ "type": "Feature", "properties": { "fid": 7, "full_id": "n236578577", "osm_id": 236578577, "railway": "station", "train": true, "operator:en": "East Japan Railway Company", "official_name:ja-Latn": null, "public_transport": "station", "operator": "東日本旅客鉄道", "name:en": "Uguisudani", "name": "鶯谷", "longitud": 139.778, "latitud": 35.722, "station": null }, "geometry": { "type": "Point", "coordinates": [ 139.778, 35.722 ] } },
{ "type": "Feature", "properties": { "fid": 8, "full_id": "n236578667", "osm_id": 236578667, "railway": "station", "train": true, "operator:en": "East Japan Railway Company", "official_name:ja-Latn": "JR Higashi-nippon Nippori", "public_transport": "station", "operator": "東日本旅客鉄道", "name:en": "Nippori", "name": "日暮里", "longitud": 139.771, "latitud": 35.728, "station": null }, "geometry": { "type": "Point", "coordinates": [ 139.771, 35.728 ] } },
{ "type": "Feature", "properties": { "fid": 9, "full_id": "n236578741", "osm_id": 236578741, "railway": "station", "train": true, "operator:en": "East Japan Railway Company", "official_name:ja-Latn": null, "public_transport": "station", "operator": "東日本旅客鉄道", "name:en": "Nishi-Nippori", "name": "西日暮里", "longitud": 139.767, "latitud": 35.732, "station": null }, "geometry": { "type": "Point", "coordinates": [ 139.767, 35.732 ] } },
{ "type": "Feature", "properties": { "fid": 10, "full_id": "n236578838", "osm_id": 236578838, "railway": "station", "train": null, "operator:en": "East Japan Railway Company", "official_name:ja-Latn": null, "public_transport": "station", "operator": "東日本旅客鉄道", "name:en": "Tabata", "name": "田端", "longitud": 139.762, "latitud": 35.737, "station": null }, "geometry": { "type": "Point", "coordinates": [ 139.762, 35.737 ] } },
{ "type": "Feature", "properties": { "fid": 11, "full_id": "n236579053", "osm_id": 236579053, "railway": "station", "train": true, "operator:en": "East Japan Railway Company", "official_name:ja-Latn": null, "public_transport": "station", "operator": "東日本旅客鉄道", "name:en": "Komagome", "name": "駒込", "longitud": 139.747, "latitud": 35.737, "station": null }, "geometry": { "type": "Point", "coordinates": [ 139.747, 35.737 ] } },
{ "type": "Feature", "properties": { "fid": 12, "full_id": "n236579126", "osm_id": 236579126, "railway": "station", "train": null, "operator:en": "East Japan Railway Company", "official_name:ja-Latn": null, "public_transport": "station", "operator": "東日本旅客鉄道", "name:en": "Sugamo", "name": "巣鴨", "longitud": 139.739, "latitud": 35.733, "station": null }, "geometry": { "type": "Point", "coordinates": [ 139.739, 35.733 ] } },
{ "type": "Feature", "properties": { "fid": 13, "full_id": "n236579274", "osm_id": 236579274, "railway": "station", "train": true, "operator:en": "East Japan Railway Company", "official_name:ja-Latn": null, "public_transport": "station", "operator": "東日本旅客鉄道", "name:en": "Otsuka", "name": "大塚", "longitud": 139.729, "latitud": 35.732, "station": null }, "geometry": { "type": "Point", "coordinates": [ 139.729, 35.732 ] } },
{ "type": "Feature", "properties": { "fid": 14, "full_id": "n236579696", "osm_id": 236579696, "railway": "station", "train": null, "operator:en": "East Japan Railway Company", "official_name:ja-Latn": null, "public_transport": "station", "operator": "東日本旅客鉄道", "name:en": "Shin-Ōkubo", "name": "新大久保", "longitud": 139.7, "latitud": 35.701, "station": null }, "geometry": { "type": "Point", "coordinates": [ 139.7, 35.701 ] } },
{ "type": "Feature", "properties": { "fid": 15, "full_id": "n240509491", "osm_id": 240509491, "railway": "station", "train": null, "operator:en": null, "official_name:ja-Latn": null, "public_transport": "station", "operator": null, "name:en": "Mito", "name": "水戸", "longitud": 140.476, "latitud": 36.371, "station": null }, "geometry": { "type": "Point", "coordinates": [ 140.476, 36.371 ] } },
{ "type": "Feature", "properties": { "fid": 16, "full_id": "n240510683", "osm_id": 240510683, "railway": "station", "train": true, "operator:en": "East Japan Railway Company", "official_name:ja-Latn": null, "public_transport": "station", "operator": "東日本旅客鉄道", "name:en": "Mikawashima", "name": "三河島", "longitud": 139.778, "latitud": 35.733, "station": null }, "geometry": { "type": "Point", "coordinates": [ 139.778, 35.733 ] } },
{ "type": "Feature", "properties": { "fid": 17, "full_id": "n241788100", "osm_id": 241788100, "railway": "station", "train": null, "operator:en": null, "official_name:ja-Latn": null, "public_transport": "station", "operator": null, "name:en": "Kamuriki", "name": "冠着", "longitud": 138.079, "latitud": 36.457, "station": null }, "geometry": { "type": "Point", "coordinates": [ 138.079, 36.457 ] } },
{ "type": "Feature", "properties": { "fid": 18, "full_id": "n241815384", "osm_id": 241815384, "railway": "station", "train": true, "operator:en": null, "official_name:ja-Latn": null, "public_transport": "station", "operator": "東日本旅客鉄道;東京臨海高速鉄道", "name:en": "Osaki", "name": "大崎", "longitud": 139.728, "latitud": 35.619, "station": null }, "geometry": { "type": "Point", "coordinates": [ 139.728, 35.619 ] } },
{ "type": "Feature", "properties": { "fid": 19, "full_id": "n241896099", "osm_id": 241896099, "railway": "station", "train": true, "operator:en": "East Japan Railway", "official_name:ja-Latn": null, "public_transport": "station", "operator": "東日本旅客鉄道", "name:en": "Shibuya", "name": "渋谷", "longitud": 139.702, "latitud": 35.658, "station": null }, "geometry": { "type": "Point", "coordinates": [ 139.702, 35.658 ] } },
{ "type": "Feature", "properties": { "fid": 20, "full_id": "n243818949", "osm_id": 243818949, "railway": "station", "train": true, "operator:en": null, "official_name:ja-Latn": null, "public_transport": "station", "operator": null, "name:en": "Mt Fuji", "name": "富士山", "longitud": 138.795, "latitud": 35.484, "station": null }, "geometry": { "type": "Point", "coordinates": [ 138.795, 35.484 ] } },
{ "type": "Feature", "properties": { "fid": 21, "full_id": "n243887260", "osm_id": 243887260, "railway": "station", "train": true, "operator:en": null, "official_name:ja-Latn": null, "public_transport": "station", "operator": "東武鉄道", "name:en": "Asaka", "name": "朝霞", "longitud": 139.6, "latitud": 35.797, "station": null }, "geometry": { "type": "Point", "coordinates": [ 139.6, 35.797 ] } },
{ "type": "Feature", "properties": { "fid": 22, "full_id": "n243887391", "osm_id": 243887391, "railway": "station", "train": true, "operator:en": null, "official_name:ja-Latn": null, "public_transport": "station", "operator": "東京急行電鉄;東京地下鉄", "name:en": "Naka-meguro", "name": "中目黒", "longitud": 139.699, "latitud": 35.644, "station": null }, "geometry": { "type": "Point", "coordinates": [ 139.699, 35.644 ] } },
{ "type": "Feature", "properties": { "fid": 23, "full_id": "n243887757", "osm_id": 243887757, "railway": "station", "train": true, "operator:en": null, "official_name:ja-Latn": null, "public_transport": "station", "operator": "東日本旅客鉄道", "name:en": "Yanagawa", "name": "梁川", "longitud": 139.038, "latitud": 35.606, "station": null }, "geometry": { "type": "Point", "coordinates": [ 139.038, 35.606 ] } },
{ "type": "Feature", "properties": { "fid": 24, "full_id": "n243887820", "osm_id": 243887820, "railway": "station", "train": true, "operator:en": null, "official_name:ja-Latn": null, "public_transport": "station", "operator": "東日本旅客鉄道", "name:en": "Saruhashi", "name": "猿橋", "longitud": 138.968, "latitud": 35.613, "station": null }, "geometry": { "type": "Point", "coordinates": [ 138.968, 35.613 ] } },
{ "type": "Feature", "properties": { "fid": 25, "full_id": "n244878145", "osm_id": 244878145, "railway": "station", "train": null, "operator:en": null, "official_name:ja-Latn": null, "public_transport": "station", "operator": "東日本旅客鉄道", "name:en": "Warabi", "name": "蕨", "longitud": 139.69, "latitud": 35.828, "station": null }, "geometry": { "type": "Point", "coordinates": [ 139.69, 35.828 ] } },
{ "type": "Feature", "properties": { "fid": 26, "full_id": "n244878189", "osm_id": 244878189, "railway": "station", "train": null, "operator:en": null, "official_name:ja-Latn": null, "public_transport": "station", "operator": "東日本旅客鉄道", "name:en": "Kita-Urawa", "name": "北浦和", "longitud": 139.646, "latitud": 35.872, "station": null }, "geometry": { "type": "Point", "coordinates": [ 139.646, 35.872 ] } },
{ "type": "Feature", "properties": { "fid": 27, "full_id": "n244878195", "osm_id": 244878195, "railway": "station", "train": null, "operator:en": null, "official_name:ja-Latn": null, "public_transport": "station", "operator": "東日本旅客鉄道", "name:en": "Yono", "name": "与野", "longitud": 139.639, "latitud": 35.884, "station": null }, "geometry": { "type": "Point", "coordinates": [ 139.639, 35.884 ] } },
{ "type": "Feature", "properties": { "fid": 28, "full_id": "n244878198", "osm_id": 244878198, "railway": "station", "train": null, "operator:en": null, "official_name:ja-Latn": null, "public_transport": "station", "operator": "東日本旅客鉄道", "name:en": "Saitama-Shintoshin", "name": "さいたま新都心", "longitud": 139.634, "latitud": 35.894, "station": null }, "geometry": { "type": "Point", "coordinates": [ 139.634, 35.894 ] } },
{ "type": "Feature", "properties": { "fid": 29, "full_id": "n244879012", "osm_id": 244879012, "railway": "station", "train": true, "operator:en": null, "official_name:ja-Latn": null, "public_transport": "station", "operator": null, "name:en": "Shin-Rifu", "name": "新利府", "longitud": 140.973, "latitud": 38.317, "station": null }, "geometry": { "type": "Point", "coordinates": [ 140.973, 38.317 ] } },
{ "type": "Feature", "properties": { "fid": 30, "full_id": "n251465504", "osm_id": 251465504, "railway": "station", "train": null, "operator:en": null, "official_name:ja-Latn": null, "public_transport": "station", "operator": "東京地下鉄", "name:en": "Monzen-nakacho", "name": "門前仲町", "longitud": 139.795, "latitud": 35.672, "station": null }, "geometry": { "type": "Point", "coordinates": [ 139.795, 35.672 ] } },
{ "type": "Feature", "properties": { "fid": 31, "full_id": "n251510846", "osm_id": 251510846, "railway": "station", "train": null, "operator:en": null, "official_name:ja-Latn": null, "public_transport": "station", "operator": null, "name:en": "Iwatsuki", "name": "岩槻", "longitud": 139.693, "latitud": 35.95, "station": null }, "geometry": { "type": "Point", "coordinates": [ 139.693, 35.95 ] } },
{ "type": "Feature", "properties": { "fid": 32, "full_id": "n262449251", "osm_id": 262449251, "railway": "station", "train": null, "operator:en": null, "official_name:ja-Latn": null, "public_transport": "station", "operator": "東京地下鉄", "name:en": "Ebisu", "name": "恵比寿", "longitud": 139.709, "latitud": 35.647, "station": null }, "geometry": { "type": "Point", "coordinates": [ 139.709, 35.647 ] } },
{ "type": "Feature", "properties": { "fid": 33, "full_id": "n263062682", "osm_id": 263062682, "railway": "station", "train": null, "operator:en": null, "official_name:ja-Latn": null, "public_transport": "station", "operator": null, "name:en": "Aizu-Hongo", "name": "会津本郷", "longitud": 139.893, "latitud": 37.464, "station": null }, "geometry": { "type": "Point", "coordinates": [ 139.893, 37.464 ] } },
{ "type": "Feature", "properties": { "fid": 34, "full_id": "n263062685", "osm_id": 263062685, "railway": "station", "train": null, "operator:en": null, "official_name:ja-Latn": null, "public_transport": "station", "operator": null, "name:en": "Wakamiya", "name": "若宮", "longitud": 139.828, "latitud": 37.536, "station": null }, "geometry": { "type": "Point", "coordinates": [ 139.828, 37.536 ] } },
{ "type": "Feature", "properties": { "fid": 35, "full_id": "n263062814", "osm_id": 263062814, "railway": "station", "train": null, "operator:en": null, "official_name:ja-Latn": null, "public_transport": "station", "operator": null, "name:en": "Aizu-Nishikata", "name": "会津西方", "longitud": 139.662, "latitud": 37.481, "station": null }, "geometry": { "type": "Point", "coordinates": [ 139.662, 37.481 ] } },
{ "type": "Feature", "properties": { "fid": 36, "full_id": "n263062815", "osm_id": 263062815, "railway": "station", "train": null, "operator:en": null, "official_name:ja-Latn": null, "public_transport": "station", "operator": null, "name:en": "Aizu-Hinohara", "name": "会津桧原", "longitud": 139.68, "latitud": 37.492, "station": null }, "geometry": { "type": "Point", "coordinates": [ 139.68, 37.492 ] } },
{ "type": "Feature", "properties": { "fid": 37, "full_id": "n263062831", "osm_id": 263062831, "railway": "station", "train": null, "operator:en": null, "official_name:ja-Latn": null, "public_transport": "station", "operator": null, "name:en": "Niitsuru", "name": "新鶴", "longitud": 139.829, "latitud": 37.517, "station": null }, "geometry": { "type": "Point", "coordinates": [ 139.829, 37.517 ] } },
{ "type": "Feature", "properties": { "fid": 38, "full_id": "n263062929", "osm_id": 263062929, "railway": "station", "train": null, "operator:en": null, "official_name:ja-Latn": null, "public_transport": "station", "operator": null, "name:en": "Aizu-Takada", "name": "会津高田", "longitud": 139.842, "latitud": 37.471, "station": null }, "geometry": { "type": "Point", "coordinates": [ 139.842, 37.471 ] } },
{ "type": "Feature", "properties": { "fid": 39, "full_id": "n263062951", "osm_id": 263062951, "railway": "station", "train": null, "operator:en": null, "official_name:ja-Latn": null, "public_transport": "station", "operator": null, "name:en": "Aizu-Kawaguchi", "name": "会津川口", "longitud": 139.524, "latitud": 37.455, "station": null }, "geometry": { "type": "Point", "coordinates": [ 139.524, 37.455 ] } },
{ "type": "Feature", "properties": { "fid": 40, "full_id": "n263063079", "osm_id": 263063079, "railway": "station", "train": null, "operator:en": null, "official_name:ja-Latn": null, "public_transport": "station", "operator": null, "name:en": "Aizu-Kosugawa", "name": "会津越川", "longitud": 139.469, "latitud": 37.399, "station": null }, "geometry": { "type": "Point", "coordinates": [ 139.469, 37.399 ] } },
{ "type": "Feature", "properties": { "fid": 41, "full_id": "n263063318", "osm_id": 263063318, "railway": "station", "train": null, "operator:en": null, "official_name:ja-Latn": null, "public_transport": "station", "operator": null, "name:en": "Aizu-Yokota", "name": "会津横田", "longitud": 139.436, "latitud": 37.392, "station": null }, "geometry": { "type": "Point", "coordinates": [ 139.436, 37.392 ] } },
{ "type": "Feature", "properties": { "fid": 42, "full_id": "n263063319", "osm_id": 263063319, "railway": "station", "train": null, "operator:en": null, "official_name:ja-Latn": null, "public_transport": "station", "operator": null, "name:en": "Nanukamachi", "name": "七日町", "longitud": 139.919, "latitud": 37.501, "station": null }, "geometry": { "type": "Point", "coordinates": [ 139.919, 37.501 ] } },
{ "type": "Feature", "properties": { "fid": 43, "full_id": "n263063388", "osm_id": 263063388, "railway": "station", "train": null, "operator:en": null, "official_name:ja-Latn": null, "public_transport": "station", "operator": null, "name:en": "Negishi", "name": "根岸", "longitud": 139.829, "latitud": 37.502, "station": null }, "geometry": { "type": "Point", "coordinates": [ 139.829, 37.502 ] } },
{ "type": "Feature", "properties": { "fid": 44, "full_id": "n263063544", "osm_id": 263063544, "railway": "station", "train": null, "operator:en": null, "official_name:ja-Latn": null, "public_transport": "station", "operator": null, "name:en": "Godo", "name": "郷戸", "longitud": 139.71, "latitud": 37.516, "station": null }, "geometry": { "type": "Point", "coordinates": [ 139.71, 37.516 ] } },
{ "type": "Feature", "properties": { "fid": 45, "full_id": "n263063594", "osm_id": 263063594, "railway": "station", "train": null, "operator:en": null, "official_name:ja-Latn": null, "public_transport": "station", "operator": null, "name:en": "Hayato", "name": "早戸", "longitud": 139.594, "latitud": 37.47, "station": null }, "geometry": { "type": "Point", "coordinates": [ 139.594, 37.47 ] } },
{ "type": "Feature", "properties": { "fid": 46, "full_id": "n263063605", "osm_id": 263063605, "railway": "station", "train": null, "operator:en": null, "official_name:ja-Latn": null, "public_transport": "station", "operator": null, "name:en": "Aizu-Bange", "name": "会津坂下", "longitud": 139.821, "latitud": 37.557, "station": null }, "geometry": { "type": "Point", "coordinates": [ 139.821, 37.557 ] } },
{ "type": "Feature", "properties": { "fid": 47, "full_id": "n263063734", "osm_id": 263063734, "railway": "station", "train": null, "operator:en": null, "official_name:ja-Latn": null, "public_transport": "station", "operator": null, "name:en": "Todera", "name": "塔寺", "longitud": 139.785, "latitud": 37.57, "station": null }, "geometry": { "type": "Point", "coordinates": [ 139.785, 37.57 ] } },
{ "type": "Feature", "properties": { "fid": 48, "full_id": "n263063765", "osm_id": 263063765, "railway": "station", "train": null, "operator:en": null, "official_name:ja-Latn": null, "public_transport": "station", "operator": null, "name:en": "Aizu-Mizunuma", "name": "会津水沼", "longitud": 139.561, "latitud": 37.483, "station": null }, "geometry": { "type": "Point", "coordinates": [ 139.561, 37.483 ] } },
{ "type": "Feature", "properties": { "fid": 49, "full_id": "n263063841", "osm_id": 263063841, "railway": "station", "train": null, "operator:en": null, "official_name:ja-Latn": null, "public_transport": "station", "operator": null, "name:en": "Honna", "name": "本名", "longitud": 139.499, "latitud": 37.445, "station": null }, "geometry": { "type": "Point", "coordinates": [ 139.499, 37.445 ] } },
{ "type": "Feature", "properties": { "fid": 50, "full_id": "n263063882", "osm_id": 263063882, "railway": "station", "train": null, "operator:en": null, "official_name:ja-Latn": null, "public_transport": "station", "operator": null, "name:en": "Aizu-Nakagawa", "name": "会津中川", "longitud": 139.532, "latitud": 37.473, "station": null }, "geometry": { "type": "Point", "coordinates": [ 139.532, 37.473 ] } },
{ "type": "Feature", "properties": { "fid": 51, "full_id": "n263063972", "osm_id": 263063972, "railway": "station", "train": null, "operator:en": null, "official_name:ja-Latn": null, "public_transport": "station", "operator": null, "name:en": "Aizu-Miyashita", "name": "会津宮下", "longitud": 139.648, "latitud": 37.471, "station": null }, "geometry": { "type": "Point", "coordinates": [ 139.648, 37.471 ] } },
{ "type": "Feature", "properties": { "fid": 52, "full_id": "n263064129", "osm_id": 263064129, "railway": "station", "train": null, "operator:en": null, "official_name:ja-Latn": null, "public_transport": "station", "operator": null, "name:en": "Takiya", "name": "滝谷", "longitud": 139.699, "latitud": 37.495, "station": null }, "geometry": { "type": "Point", "coordinates": [ 139.699, 37.495 ] } },
{ "type": "Feature", "properties": { "fid": 53, "full_id": "n263064336", "osm_id": 263064336, "railway": "station", "train": null, "operator:en": null, "official_name:ja-Latn": null, "public_transport": "station", "operator": null, "name:en": "Aizu-Yanaizu", "name": "会津柳津", "longitud": 139.724, "latitud": 37.539, "station": null }, "geometry": { "type": "Point", "coordinates": [ 139.724, 37.539 ] } },
{ "type": "Feature", "properties": { "fid": 54, "full_id": "n263064566", "osm_id": 263064566, "railway": "station", "train": null, "operator:en": null, "official_name:ja-Latn": null, "public_transport": "station", "operator": null, "name:en": "Aizu-Oshio", "name": "会津大塩", "longitud": 139.413, "latitud": 37.393, "station": null }, "geometry": { "type": "Point", "coordinates": [ 139.413, 37.393 ] } },
{ "type": "Feature", "properties": { "fid": 55, "full_id": "n263064820", "osm_id": 263064820, "railway": "station", "train": null, "operator:en": null, "official_name:ja-Latn": null, "public_transport": "station", "operator": null, "name:en": "Aizu-Sakamoto", "name": "会津坂本", "longitud": 139.757, "latitud": 37.553, "station": null }, "geometry": { "type": "Point", "coordinates": [ 139.757, 37.553 ] } },
{ "type": "Feature", "properties": { "fid": 56, "full_id": "n263065568", "osm_id": 263065568, "railway": "station", "train": null, "operator:en": null, "official_name:ja-Latn": null, "public_transport": "station", "operator": null, "name:en": "Kamijō", "name": "上条", "longitud": 139.051, "latitud": 37.347, "station": null }, "geometry": { "type": "Point", "coordinates": [ 139.051, 37.347 ] } },
{ "type": "Feature", "properties": { "fid": 57, "full_id": "n263065569", "osm_id": 263065569, "railway": "station", "train": null, "operator:en": null, "official_name:ja-Latn": null, "public_transport": "station", "operator": null, "name:en": "Irihirose", "name": "入広瀬", "longitud": 139.066, "latitud": 37.358, "station": null }, "geometry": { "type": "Point", "coordinates": [ 139.066, 37.358 ] } },
{ "type": "Feature", "properties": { "fid": 58, "full_id": "n263065570", "osm_id": 263065570, "railway": "station", "train": null, "operator:en": null, "official_name:ja-Latn": null, "public_transport": null, "operator": null, "name:en": "Aizu-Shiozawa", "name": "会津塩沢", "longitud": 139.355, "latitud": 37.394, "station": null }, "geometry": { "type": "Point", "coordinates": [ 139.355, 37.394 ] } },
{ "type": "Feature", "properties": { "fid": 59, "full_id": "n263065744", "osm_id": 263065744, "railway": "station", "train": null, "operator:en": null, "official_name:ja-Latn": null, "public_transport": "station", "operator": null, "name:en": "Ōshirakawa", "name": "大白川", "longitud": 139.121, "latitud": 37.342, "station": null }, "geometry": { "type": "Point", "coordinates": [ 139.121, 37.342 ] } },
{ "type": "Feature", "properties": { "fid": 60, "full_id": "n263065974", "osm_id": 263065974, "railway": "station", "train": null, "operator:en": null, "official_name:ja-Latn": null, "public_transport": "station", "operator": null, "name:en": "Aizu-Gamo", "name": "会津蒲生", "longitud": 139.333, "latitud": 37.382, "station": null }, "geometry": { "type": "Point", "coordinates": [ 139.333, 37.382 ] } },
{ "type": "Feature", "properties": { "fid": 61, "full_id": "n263065976", "osm_id": 263065976, "railway": "station", "train": null, "operator:en": null, "official_name:ja-Latn": null, "public_transport": "station", "operator": null, "name:en": "Yabukami", "name": "藪神", "longitud": 138.976, "latitud": 37.257, "station": null }, "geometry": { "type": "Point", "coordinates": [ 138.976, 37.257 ] } },
{ "type": "Feature", "properties": { "fid": 62, "full_id": "n263066045", "osm_id": 263066045, "railway": "station", "train": null, "operator:en": null, "official_name:ja-Latn": null, "public_transport": "station", "operator": null, "name:en": "Echigo-Hirose", "name": "越後広瀬", "longitud": 138.981, "latitud": 37.275, "station": null }, "geometry": { "type": "Point", "coordinates": [ 138.981, 37.275 ] } },
{ "type": "Feature", "properties": { "fid": 63, "full_id": "n263066146", "osm_id": 263066146, "railway": "station", "train": null, "operator:en": null, "official_name:ja-Latn": null, "public_transport": "station", "operator": null, "name:en": "Echigo-Suhara", "name": "越後須原", "longitud": 139.018, "latitud": 37.32, "station": null }, "geometry": { "type": "Point", "coordinates": [ 139.018, 37.32 ] } },
{ "type": "Feature", "properties": { "fid": 64, "full_id": "n263066252", "osm_id": 263066252, "railway": "station", "train": null, "operator:en": null, "official_name:ja-Latn": null, "public_transport": "station", "operator": null, "name:en": "Tadami", "name": "只見", "longitud": 139.315, "latitud": 37.351, "station": null }, "geometry": { "type": "Point", "coordinates": [ 139.315, 37.351 ] } },
{ "type": "Feature", "properties": { "fid": 65, "full_id": "n263066521", "osm_id": 263066521, "railway": "station", "train": null, "operator:en": null, "official_name:ja-Latn": null, "public_transport": "station", "operator": null, "name:en": "Uonuma-Tanaka", "name": "魚沼田中", "longitud": 138.993, "latitud": 37.294, "station": null }, "geometry": { "type": "Point", "coordinates": [ 138.993, 37.294 ] } },
{ "type": "Feature", "properties": { "fid": 66, "full_id": "n263066791", "osm_id": 263066791, "railway": "station", "train": null, "operator:en": null, "official_name:ja-Latn": null, "public_transport": null, "operator": null, "name:en": "Akai", "name": "赤井", "longitud": 140.866, "latitud": 37.08, "station": null }, "geometry": { "type": "Point", "coordinates": [ 140.866, 37.08 ] } },
{ "type": "Feature", "properties": { "fid": 67, "full_id": "n263066793", "osm_id": 263066793, "railway": "station", "train": null, "operator:en": null, "official_name:ja-Latn": null, "public_transport": null, "operator": null, "name:en": "Kanmata", "name": "神俣", "longitud": 140.66, "latitud": 37.325, "station": null }, "geometry": { "type": "Point", "coordinates": [ 140.66, 37.325 ] } },
{ "type": "Feature", "properties": { "fid": 68, "full_id": "n263066873", "osm_id": 263066873, "railway": "station", "train": null, "operator:en": null, "official_name:ja-Latn": null, "public_transport": null, "operator": null, "name:en": "Sugaya", "name": "菅谷", "longitud": 140.645, "latitud": 37.35, "station": null }, "geometry": { "type": "Point", "coordinates": [ 140.645, 37.35 ] } },
{ "type": "Feature", "properties": { "fid": 69, "full_id": "n263067006", "osm_id": 263067006, "railway": "station", "train": null, "operator:en": null, "official_name:ja-Latn": null, "public_transport": null, "operator": null, "name:en": "Funehiki", "name": "船引", "longitud": 140.575, "latitud": 37.443, "station": null }, "geometry": { "type": "Point", "coordinates": [ 140.575, 37.443 ] } },
{ "type": "Feature", "properties": { "fid": 70, "full_id": "n263067009", "osm_id": 263067009, "railway": "station", "train": null, "operator:en": null, "official_name:ja-Latn": null, "public_transport": null, "operator": null, "name:en": "Natsui", "name": "夏井", "longitud": 140.663, "latitud": 37.253, "station": null }, "geometry": { "type": "Point", "coordinates": [ 140.663, 37.253 ] } },
{ "type": "Feature", "properties": { "fid": 71, "full_id": "n263067188", "osm_id": 263067188, "railway": "station", "train": null, "operator:en": null, "official_name:ja-Latn": null, "public_transport": null, "operator": null, "name:en": "Iwaki-Tokiwa", "name": "磐城常葉", "longitud": 140.606, "latitud": 37.421, "station": null }, "geometry": { "type": "Point", "coordinates": [ 140.606, 37.421 ] } },
{ "type": "Feature", "properties": { "fid": 72, "full_id": "n263067231", "osm_id": 263067231, "railway": "station", "train": null, "operator:en": null, "official_name:ja-Latn": null, "public_transport": null, "operator": null, "name:en": "Ogawago", "name": "小川郷", "longitud": 140.863, "latitud": 37.127, "station": null }, "geometry": { "type": "Point", "coordinates": [ 140.863, 37.127 ] } },
{ "type": "Feature", "properties": { "fid": 73, "full_id": "n263067234", "osm_id": 263067234, "railway": "station", "train": null, "operator:en": null, "official_name:ja-Latn": null, "public_transport": null, "operator": null, "name:en": "Miharu", "name": "三春", "longitud": 140.479, "latitud": 37.45, "station": null }, "geometry": { "type": "Point", "coordinates": [ 140.479, 37.45 ] } },
{ "type": "Feature", "properties": { "fid": 74, "full_id": "n263067316", "osm_id": 263067316, "railway": "station", "train": null, "operator:en": null, "official_name:ja-Latn": null, "public_transport": null, "operator": null, "name:en": "Kanameta", "name": "要田", "longitud": 140.521, "latitud": 37.454, "station": null }, "geometry": { "type": "Point", "coordinates": [ 140.521, 37.454 ] } },
{ "type": "Feature", "properties": { "fid": 75, "full_id": "n263068365", "osm_id": 263068365, "railway": "station", "train": null, "operator:en": null, "official_name:ja-Latn": null, "public_transport": null, "operator": null, "name:en": "Ononii-machi", "name": "小野新町", "longitud": 140.637, "latitud": 37.275, "station": null }, "geometry": { "type": "Point", "coordinates": [ 140.637, 37.275 ] } },
{ "type": "Feature", "properties": { "fid": 76, "full_id": "n263068451", "osm_id": 263068451, "railway": "station", "train": null, "operator:en": null, "official_name:ja-Latn": null, "public_transport": null, "operator": null, "name:en": "Mogi", "name": "舞木", "longitud": 140.435, "latitud": 37.417, "station": null }, "geometry": { "type": "Point", "coordinates": [ 140.435, 37.417 ] } },
{ "type": "Feature", "properties": { "fid": 77, "full_id": "n263068500", "osm_id": 263068500, "railway": "station", "train": null, "operator:en": null, "official_name:ja-Latn": null, "public_transport": null, "operator": null, "name:en": "Ogoe", "name": "大越", "longitud": 140.631, "latitud": 37.387, "station": null }, "geometry": { "type": "Point", "coordinates": [ 140.631, 37.387 ] } },
{ "type": "Feature", "properties": { "fid": 78, "full_id": "n263068741", "osm_id": 263068741, "railway": "station", "train": null, "operator:en": null, "official_name:ja-Latn": null, "public_transport": null, "operator": null, "name:en": "Igashima", "name": "五十島", "longitud": 139.353, "latitud": 37.716, "station": null }, "geometry": { "type": "Point", "coordinates": [ 139.353, 37.716 ] } },
{ "type": "Feature", "properties": { "fid": 79, "full_id": "n263068743", "osm_id": 263068743, "railway": "station", "train": null, "operator:en": null, "official_name:ja-Latn": null, "public_transport": null, "operator": null, "name:en": "Tsugawa", "name": "津川", "longitud": 139.447, "latitud": 37.688, "station": null }, "geometry": { "type": "Point", "coordinates": [ 139.447, 37.688 ] } },
{ "type": "Feature", "properties": { "fid": 80, "full_id": "n263068745", "osm_id": 263068745, "railway": "station", "train": null, "operator:en": null, "official_name:ja-Latn": null, "public_transport": null, "operator": null, "name:en": "Kanose", "name": "鹿瀬", "longitud": 139.48, "latitud": 37.696, "station": null }, "geometry": { "type": "Point", "coordinates": [ 139.48, 37.696 ] } },
{ "type": "Feature", "properties": { "fid": 81, "full_id": "n263068967", "osm_id": 263068967, "railway": "station", "train": null, "operator:en": null, "official_name:ja-Latn": null, "public_transport": null, "operator": null, "name:en": "Kita-Gosen", "name": "北五泉", "longitud": 139.17, "latitud": 37.747, "station": null }, "geometry": { "type": "Point", "coordinates": [ 139.17, 37.747 ] } },
{ "type": "Feature", "properties": { "fid": 82, "full_id": "n263068968", "osm_id": 263068968, "railway": "station", "train": null, "operator:en": null, "official_name:ja-Latn": null, "public_transport": null, "operator": null, "name:en": "Hideya", "name": "日出谷", "longitud": 139.534, "latitud": 37.706, "station": null }, "geometry": { "type": "Point", "coordinates": [ 139.534, 37.706 ] } },
{ "type": "Feature", "properties": { "fid": 83, "full_id": "n263068970", "osm_id": 263068970, "railway": "station", "train": null, "operator:en": null, "official_name:ja-Latn": null, "public_transport": null, "operator": null, "name:en": "Shinseki", "name": "新関", "longitud": 139.162, "latitud": 37.769, "station": null }, "geometry": { "type": "Point", "coordinates": [ 139.162, 37.769 ] } },
{ "type": "Feature", "properties": { "fid": 84, "full_id": "n263068972", "osm_id": 263068972, "railway": "station", "train": null, "operator:en": null, "official_name:ja-Latn": null, "public_transport": null, "operator": null, "name:en": "Mikawa", "name": "三川", "longitud": 139.382, "latitud": 37.709, "station": null }, "geometry": { "type": "Point", "coordinates": [ 139.382, 37.709 ] } },
{ "type": "Feature", "properties": { "fid": 85, "full_id": "n263068974", "osm_id": 263068974, "railway": "station", "train": null, "operator:en": null, "official_name:ja-Latn": null, "public_transport": null, "operator": null, "name:en": "Higashi-Gejo", "name": "東下条", "longitud": 139.322, "latitud": 37.736, "station": null }, "geometry": { "type": "Point", "coordinates": [ 139.322, 37.736 ] } },
{ "type": "Feature", "properties": { "fid": 86, "full_id": "n263069425", "osm_id": 263069425, "railway": "station", "train": null, "operator:en": null, "official_name:ja-Latn": null, "public_transport": null, "operator": null, "name:en": "Maoroshi", "name": "馬下", "longitud": 139.26, "latitud": 37.738, "station": null }, "geometry": { "type": "Point", "coordinates": [ 139.26, 37.738 ] } },
{ "type": "Feature", "properties": { "fid": 87, "full_id": "n263069586", "osm_id": 263069586, "railway": "station", "train": null, "operator:en": null, "official_name:ja-Latn": null, "public_transport": null, "operator": null, "name:en": "Toyomi", "name": "豊実", "longitud": 139.576, "latitud": 37.681, "station": null }, "geometry": { "type": "Point", "coordinates": [ 139.576, 37.681 ] } },
{ "type": "Feature", "properties": { "fid": 88, "full_id": "n263069587", "osm_id": 263069587, "railway": "station", "train": null, "operator:en": null, "official_name:ja-Latn": null, "public_transport": null, "operator": null, "name:en": "Gosen", "name": "五泉", "longitud": 139.18, "latitud": 37.734, "station": null }, "geometry": { "type": "Point", "coordinates": [ 139.18, 37.734 ] } },
{ "type": "Feature", "properties": { "fid": 89, "full_id": "n263069803", "osm_id": 263069803, "railway": "station", "train": null, "operator:en": null, "official_name:ja-Latn": null, "public_transport": null, "operator": null, "name:en": "Higashi-Niitsu", "name": "東新津", "longitud": 139.143, "latitud": 37.788, "station": null }, "geometry": { "type": "Point", "coordinates": [ 139.143, 37.788 ] } },
{ "type": "Feature", "properties": { "fid": 90, "full_id": "n263069904", "osm_id": 263069904, "railway": "station", "train": null, "operator:en": null, "official_name:ja-Latn": null, "public_transport": null, "operator": null, "name:en": "Saruwada", "name": "猿和田", "longitud": 139.222, "latitud": 37.73, "station": null }, "geometry": { "type": "Point", "coordinates": [ 139.222, 37.73 ] } },
{ "type": "Feature", "properties": { "fid": 91, "full_id": "n263069905", "osm_id": 263069905, "railway": "station", "train": null, "operator:en": null, "official_name:ja-Latn": null, "public_transport": null, "operator": null, "name:en": "Sakihana", "name": "咲花", "longitud": 139.291, "latitud": 37.735, "station": null }, "geometry": { "type": "Point", "coordinates": [ 139.291, 37.735 ] } },
{ "type": "Feature", "properties": { "fid": 92, "full_id": "n263070191", "osm_id": 263070191, "railway": "station", "train": null, "operator:en": null, "official_name:ja-Latn": null, "public_transport": null, "operator": null, "name:en": "Bandai-Atami", "name": "磐梯熱海", "longitud": 140.271, "latitud": 37.481, "station": null }, "geometry": { "type": "Point", "coordinates": [ 140.271, 37.481 ] } },
{ "type": "Feature", "properties": { "fid": 93, "full_id": "n263070211", "osm_id": 263070211, "railway": "station", "train": null, "operator:en": null, "official_name:ja-Latn": null, "public_transport": null, "operator": null, "name:en": "Joko", "name": "上戸", "longitud": 140.163, "latitud": 37.488, "station": null }, "geometry": { "type": "Point", "coordinates": [ 140.163, 37.488 ] } },
{ "type": "Feature", "properties": { "fid": 94, "full_id": "n263070214", "osm_id": 263070214, "railway": "station", "train": null, "operator:en": null, "official_name:ja-Latn": null, "public_transport": null, "operator": null, "name:en": "Akogashima", "name": "安子ヶ島", "longitud": 140.31, "latitud": 37.472, "station": null }, "geometry": { "type": "Point", "coordinates": [ 140.31, 37.472 ] } },
{ "type": "Feature", "properties": { "fid": 95, "full_id": "n263070226", "osm_id": 263070226, "railway": "station", "train": true, "operator:en": null, "official_name:ja-Latn": null, "public_transport": "station", "operator": null, "name:en": "Nakayamajuku", "name": "中山宿", "longitud": 140.219, "latitud": 37.496, "station": null }, "geometry": { "type": "Point", "coordinates": [ 140.219, 37.496 ] } },
{ "type": "Feature", "properties": { "fid": 96, "full_id": "n263070231", "osm_id": 263070231, "railway": "station", "train": null, "operator:en": null, "official_name:ja-Latn": null, "public_transport": null, "operator": "JR東日本仙台支社", "name:en": "Kikuta", "name": "喜久田", "longitud": 140.342, "latitud": 37.452, "station": null }, "geometry": { "type": "Point", "coordinates": [ 140.342, 37.452 ] } },
{ "type": "Feature", "properties": { "fid": 97, "full_id": "n263070857", "osm_id": 263070857, "railway": "station", "train": null, "operator:en": null, "official_name:ja-Latn": null, "public_transport": null, "operator": null, "name:en": "Higashi-Nagahara", "name": "東長原", "longitud": 139.948, "latitud": 37.567, "station": null }, "geometry": { "type": "Point", "coordinates": [ 139.948, 37.567 ] } },
{ "type": "Feature", "properties": { "fid": 98, "full_id": "n263071312", "osm_id": 263071312, "railway": "station", "train": null, "operator:en": null, "official_name:ja-Latn": null, "public_transport": "station", "operator": null, "name:en": "Ogino", "name": "荻野", "longitud": 139.723, "latitud": 37.617, "station": null }, "geometry": { "type": "Point", "coordinates": [ 139.723, 37.617 ] } },
{ "type": "Feature", "properties": { "fid": 99, "full_id": "n263071314", "osm_id": 263071314, "railway": "station", "train": null, "operator:en": null, "official_name:ja-Latn": null, "public_transport": null, "operator": null, "name:en": "Sekito", "name": "関都", "longitud": 140.144, "latitud": 37.516, "station": null }, "geometry": { "type": "Point", "coordinates": [ 140.144, 37.516 ] } },
{ "type": "Feature", "properties": { "fid": 100, "full_id": "n263071317", "osm_id": 263071317, "railway": "station", "train": null, "operator:en": null, "official_name:ja-Latn": null, "public_transport": null, "operator": null, "name:en": "Inawashirokohan", "name": "猪苗代湖畔", "longitud": 140.148, "latitud": 37.5, "station": null }, "geometry": { "type": "Point", "coordinates": [ 140.148, 37.5 ] } },
{ "type": "Feature", "properties": { "fid": 101, "full_id": "n263071441", "osm_id": 263071441, "railway": "station", "train": null, "operator:en": null, "official_name:ja-Latn": null, "public_transport": null, "operator": null, "name:en": "Aizu-Toyokawa", "name": "会津豊川", "longitud": 139.877, "latitud": 37.633, "station": null }, "geometry": { "type": "Point", "coordinates": [ 139.877, 37.633 ] } },
{ "type": "Feature", "properties": { "fid": 102, "full_id": "n263071444", "osm_id": 263071444, "railway": "station", "train": null, "operator:en": null, "official_name:ja-Latn": null, "public_transport": "station", "operator": null, "name:en": "Kitakata", "name": "喜多方", "longitud": 139.868, "latitud": 37.644, "station": null }, "geometry": { "type": "Point", "coordinates": [ 139.868, 37.644 ] } },
{ "type": "Feature", "properties": { "fid": 103, "full_id": "n263071559", "osm_id": 263071559, "railway": "station", "train": null, "operator:en": null, "official_name:ja-Latn": null, "public_transport": null, "operator": null, "name:en": "Kawageta", "name": "川桁", "longitud": 140.137, "latitud": 37.536, "station": null }, "geometry": { "type": "Point", "coordinates": [ 140.137, 37.536 ] } },
{ "type": "Feature", "properties": { "fid": 104, "full_id": "n263071561", "osm_id": 263071561, "railway": "station", "train": null, "operator:en": null, "official_name:ja-Latn": null, "public_transport": "station", "operator": null, "name:en": "Yamato", "name": "山都", "longitud": 139.767, "latitud": 37.639, "station": null }, "geometry": { "type": "Point", "coordinates": [ 139.767, 37.639 ] } },
{ "type": "Feature", "properties": { "fid": 105, "full_id": "n263072140", "osm_id": 263072140, "railway": "station", "train": null, "operator:en": null, "official_name:ja-Latn": null, "public_transport": null, "operator": null, "name:en": "Dojima", "name": "堂島", "longitud": 139.912, "latitud": 37.555, "station": null }, "geometry": { "type": "Point", "coordinates": [ 139.912, 37.555 ] } },
{ "type": "Feature", "properties": { "fid": 106, "full_id": "n263072424", "osm_id": 263072424, "railway": "station", "train": null, "operator:en": null, "official_name:ja-Latn": null, "public_transport": null, "operator": null, "name:en": "Ubado", "name": "姥堂", "longitud": 139.881, "latitud": 37.616, "station": null }, "geometry": { "type": "Point", "coordinates": [ 139.881, 37.616 ] } },
{ "type": "Feature", "properties": { "fid": 107, "full_id": "n263072427", "osm_id": 263072427, "railway": "station", "train": null, "operator:en": null, "official_name:ja-Latn": null, "public_transport": null, "operator": null, "name:en": "Hirota", "name": "広田", "longitud": 139.933, "latitud": 37.549, "station": null }, "geometry": { "type": "Point", "coordinates": [ 139.933, 37.549 ] } },
{ "type": "Feature", "properties": { "fid": 108, "full_id": "n263072479", "osm_id": 263072479, "railway": "station", "train": null, "operator:en": null, "official_name:ja-Latn": null, "public_transport": null, "operator": null, "name:en": "Shiokawa", "name": "塩川", "longitud": 139.887, "latitud": 37.594, "station": null }, "geometry": { "type": "Point", "coordinates": [ 139.887, 37.594 ] } },
{ "type": "Feature", "properties": { "fid": 109, "full_id": "n263072488", "osm_id": 263072488, "railway": "station", "train": null, "operator:en": null, "official_name:ja-Latn": null, "public_transport": null, "operator": null, "name:en": "Okinashima", "name": "翁島", "longitud": 140.054, "latitud": 37.553, "station": null }, "geometry": { "type": "Point", "coordinates": [ 140.054, 37.553 ] } },
{ "type": "Feature", "properties": { "fid": 110, "full_id": "n263073117", "osm_id": 263073117, "railway": "station", "train": null, "operator:en": null, "official_name:ja-Latn": null, "public_transport": "station", "operator": null, "name:en": "Kami-Nojiri", "name": "上野尻", "longitud": 139.634, "latitud": 37.625, "station": null }, "geometry": { "type": "Point", "coordinates": [ 139.634, 37.625 ] } },
{ "type": "Feature", "properties": { "fid": 111, "full_id": "n263074656", "osm_id": 263074656, "railway": "station", "train": null, "operator:en": null, "official_name:ja-Latn": null, "public_transport": "station", "operator": null, "name:en": "Tokusawa", "name": "徳沢", "longitud": 139.603, "latitud": 37.667, "station": null }, "geometry": { "type": "Point", "coordinates": [ 139.603, 37.667 ] } },
{ "type": "Feature", "properties": { "fid": 112, "full_id": "n263081540", "osm_id": 263081540, "railway": "station", "train": null, "operator:en": null, "official_name:ja-Latn": null, "public_transport": "station", "operator": null, "name:en": "Oikawa", "name": "笈川", "longitud": 139.896, "latitud": 37.579, "station": null }, "geometry": { "type": "Point", "coordinates": [ 139.896, 37.579 ] } },
{ "type": "Feature", "properties": { "fid": 113, "full_id": "n263081994", "osm_id": 263081994, "railway": "station", "train": null, "operator:en": null, "official_name:ja-Latn": null, "public_transport": null, "operator": null, "name:en": "Onobori", "name": "尾登", "longitud": 139.691, "latitud": 37.609, "station": null }, "geometry": { "type": "Point", "coordinates": [ 139.691, 37.609 ] } },
{ "type": "Feature", "properties": { "fid": 114, "full_id": "n263081995", "osm_id": 263081995, "railway": "station", "train": null, "operator:en": null, "official_name:ja-Latn": null, "public_transport": "station", "operator": null, "name:en": "Aizu-Wakamatsu", "name": "会津若松", "longitud": 139.93, "latitud": 37.509, "station": null }, "geometry": { "type": "Point", "coordinates": [ 139.93, 37.509 ] } },
{ "type": "Feature", "properties": { "fid": 115, "full_id": "n263082260", "osm_id": 263082260, "railway": "station", "train": null, "operator:en": null, "official_name:ja-Latn": null, "public_transport": null, "operator": null, "name:en": "Bandai-machi", "name": "磐梯町", "longitud": 139.994, "latitud": 37.558, "station": null }, "geometry": { "type": "Point", "coordinates": [ 139.994, 37.558 ] } },
{ "type": "Feature", "properties": { "fid": 116, "full_id": "n263083428", "osm_id": 263083428, "railway": "station", "train": null, "operator:en": null, "official_name:ja-Latn": null, "public_transport": null, "operator": null, "name:en": "Inawashiro", "name": "猪苗代", "longitud": 140.103, "latitud": 37.546, "station": null }, "geometry": { "type": "Point", "coordinates": [ 140.103, 37.546 ] } },
{ "type": "Feature", "properties": { "fid": 117, "full_id": "n263083953", "osm_id": 263083953, "railway": "station", "train": null, "operator:en": null, "official_name:ja-Latn": null, "public_transport": null, "operator": null, "name:en": "Nozawa", "name": "野沢", "longitud": 139.644, "latitud": 37.591, "station": null }, "geometry": { "type": "Point", "coordinates": [ 139.644, 37.591 ] } },
{ "type": "Feature", "properties": { "fid": 118, "full_id": "n263168169", "osm_id": 263168169, "railway": "station", "train": true, "operator:en": null, "official_name:ja-Latn": null, "public_transport": "station", "operator": null, "name:en": "Satoshiraishi", "name": "里白石", "longitud": 140.416, "latitud": 37.104, "station": null }, "geometry": { "type": "Point", "coordinates": [ 140.416, 37.104 ] } },
{ "type": "Feature", "properties": { "fid": 119, "full_id": "n263168557", "osm_id": 263168557, "railway": "station", "train": true, "operator:en": null, "official_name:ja-Latn": null, "public_transport": "station", "operator": null, "name:en": "Shimonomiya", "name": "下野宮", "longitud": 140.375, "latitud": 36.816, "station": null }, "geometry": { "type": "Point", "coordinates": [ 140.375, 36.816 ] } },
{ "type": "Feature", "properties": { "fid": 120, "full_id": "n263168723", "osm_id": 263168723, "railway": "station", "train": true, "operator:en": null, "official_name:ja-Latn": null, "public_transport": "station", "operator": null, "name:en": "Hitachi-Daigo", "name": "常陸大子", "longitud": 140.351, "latitud": 36.771, "station": null }, "geometry": { "type": "Point", "coordinates": [ 140.351, 36.771 ] } },
{ "type": "Feature", "properties": { "fid": 121, "full_id": "n263168977", "osm_id": 263168977, "railway": "station", "train": true, "operator:en": null, "official_name:ja-Latn": null, "public_transport": "station", "operator": null, "name:en": "Higashidate", "name": "東館", "longitud": 140.423, "latitud": 36.87, "station": null }, "geometry": { "type": "Point", "coordinates": [ 140.423, 36.87 ] } },
{ "type": "Feature", "properties": { "fid": 122, "full_id": "n263171062", "osm_id": 263171062, "railway": "station", "train": true, "operator:en": null, "official_name:ja-Latn": null, "public_transport": "station", "operator": null, "name:en": "Tamagawamura", "name": "玉川村", "longitud": 140.374, "latitud": 36.579, "station": null }, "geometry": { "type": "Point", "coordinates": [ 140.374, 36.579 ] } },
{ "type": "Feature", "properties": { "fid": 123, "full_id": "n263173754", "osm_id": 263173754, "railway": "station", "train": true, "operator:en": null, "official_name:ja-Latn": null, "public_transport": "station", "operator": null, "name:en": "Fukuroda", "name": "袋田", "longitud": 140.38, "latitud": 36.754, "station": null }, "geometry": { "type": "Point", "coordinates": [ 140.38, 36.754 ] } },
{ "type": "Feature", "properties": { "fid": 124, "full_id": "n263176471", "osm_id": 263176471, "railway": "station", "train": null, "operator:en": null, "official_name:ja-Latn": null, "public_transport": "station", "operator": null, "name:en": "Daishaka", "name": "大釈迦", "longitud": 140.588, "latitud": 40.757, "station": null }, "geometry": { "type": "Point", "coordinates": [ 140.588, 40.757 ] } },
{ "type": "Feature", "properties": { "fid": 125, "full_id": "n263176826", "osm_id": 263176826, "railway": "station", "train": null, "operator:en": null, "official_name:ja-Latn": null, "public_transport": "station", "operator": null, "name:en": "Tsugaru-Shinjo", "name": "津軽新城", "longitud": 140.672, "latitud": 40.828, "station": null }, "geometry": { "type": "Point", "coordinates": [ 140.672, 40.828 ] } },
{ "type": "Feature", "properties": { "fid": 126, "full_id": "n263177498", "osm_id": 263177498, "railway": "station", "train": null, "operator:en": null, "official_name:ja-Latn": null, "public_transport": "station", "operator": null, "name:en": "Ishikawa", "name": "石川", "longitud": 140.531, "latitud": 40.556, "station": null }, "geometry": { "type": "Point", "coordinates": [ 140.531, 40.556 ] } },
{ "type": "Feature", "properties": { "fid": 127, "full_id": "n263177838", "osm_id": 263177838, "railway": "station", "train": true, "operator:en": null, "official_name:ja-Latn": null, "public_transport": "station", "operator": null, "name:en": "Hayaguchi", "name": "早口", "longitud": 140.449, "latitud": 40.271, "station": null }, "geometry": { "type": "Point", "coordinates": [ 140.449, 40.271 ] } },
{ "type": "Feature", "properties": { "fid": 128, "full_id": "n263178489", "osm_id": 263178489, "railway": "station", "train": null, "operator:en": null, "official_name:ja-Latn": null, "public_transport": "station", "operator": null, "name:en": "Nukazawa", "name": "糠沢", "longitud": 140.398, "latitud": 40.251, "station": null }, "geometry": { "type": "Point", "coordinates": [ 140.398, 40.251 ] } },
{ "type": "Feature", "properties": { "fid": 129, "full_id": "n263183406", "osm_id": 263183406, "railway": "station", "train": null, "operator:en": null, "official_name:ja-Latn": null, "public_transport": "station", "operator": null, "name:en": "Maeyama", "name": "前山", "longitud": 140.312, "latitud": 40.215, "station": null }, "geometry": { "type": "Point", "coordinates": [ 140.312, 40.215 ] } },
{ "type": "Feature", "properties": { "fid": 130, "full_id": "n263184425", "osm_id": 263184425, "railway": "station", "train": null, "operator:en": null, "official_name:ja-Latn": null, "public_transport": "station", "operator": null, "name:en": "Okubo", "name": "大久保", "longitud": 140.063, "latitud": 39.871, "station": null }, "geometry": { "type": "Point", "coordinates": [ 140.063, 39.871 ] } },
{ "type": "Feature", "properties": { "fid": 131, "full_id": "n263189158", "osm_id": 263189158, "railway": "station", "train": null, "operator:en": null, "official_name:ja-Latn": null, "public_transport": "station", "operator": null, "name:en": "Kami-Iijima", "name": "上飯島", "longitud": 140.069, "latitud": 39.779, "station": null }, "geometry": { "type": "Point", "coordinates": [ 140.069, 39.779 ] } },
{ "type": "Feature", "properties": { "fid": 132, "full_id": "n263189202", "osm_id": 263189202, "railway": "station", "train": null, "operator:en": null, "official_name:ja-Latn": null, "public_transport": "station", "operator": null, "name:en": "Koikawa", "name": "鯉川", "longitud": 140.077, "latitud": 39.996, "station": null }, "geometry": { "type": "Point", "coordinates": [ 140.077, 39.996 ] } },
{ "type": "Feature", "properties": { "fid": 133, "full_id": "n263224072", "osm_id": 263224072, "railway": "station", "train": true, "operator:en": null, "official_name:ja-Latn": null, "public_transport": "station", "operator": null, "name:en": "Tendo", "name": "天童", "longitud": 140.37, "latitud": 38.36, "station": null }, "geometry": { "type": "Point", "coordinates": [ 140.37, 38.36 ] } },
{ "type": "Feature", "properties": { "fid": 134, "full_id": "n263229121", "osm_id": 263229121, "railway": "station", "train": true, "operator:en": null, "official_name:ja-Latn": null, "public_transport": "station", "operator": null, "name:en": "Kaminoyama-Onsen", "name": "かみのやま温泉", "longitud": 140.279, "latitud": 38.152, "station": null }, "geometry": { "type": "Point", "coordinates": [ 140.279, 38.152 ] } },
{ "type": "Feature", "properties": { "fid": 135, "full_id": "n263239925", "osm_id": 263239925, "railway": "station", "train": true, "operator:en": null, "official_name:ja-Latn": null, "public_transport": "station", "operator": null, "name:en": "Hirano", "name": "平野", "longitud": 140.443, "latitud": 37.805, "station": null }, "geometry": { "type": "Point", "coordinates": [ 140.443, 37.805 ] } },
{ "type": "Feature", "properties": { "fid": 136, "full_id": "n263242985", "osm_id": 263242985, "railway": "station", "train": true, "operator:en": null, "official_name:ja-Latn": null, "public_transport": "station", "operator": "阿武隈急行線", "name:en": "Abukuma", "name": "あぶくま", "longitud": 140.686, "latitud": 37.914, "station": null }, "geometry": { "type": "Point", "coordinates": [ 140.686, 37.914 ] } },
{ "type": "Feature", "properties": { "fid": 137, "full_id": "n263243929", "osm_id": 263243929, "railway": "station", "train": true, "operator:en": null, "official_name:ja-Latn": null, "public_transport": "station", "operator": null, "name:en": "Yanagawa Kibonomori Koen-mae", "name": "やながわ希望の森公園前", "longitud": 140.616, "latitud": 37.857, "station": null }, "geometry": { "type": "Point", "coordinates": [ 140.616, 37.857 ] } },
{ "type": "Feature", "properties": { "fid": 138, "full_id": "n263244900", "osm_id": 263244900, "railway": "station", "train": true, "operator:en": null, "official_name:ja-Latn": null, "public_transport": "station", "operator": null, "name:en": "Tomino", "name": "富野", "longitud": 140.627, "latitud": 37.874, "station": null }, "geometry": { "type": "Point", "coordinates": [ 140.627, 37.874 ] } },
{ "type": "Feature", "properties": { "fid": 139, "full_id": "n263245073", "osm_id": 263245073, "railway": "station", "train": true, "operator:en": null, "official_name:ja-Latn": null, "public_transport": "station", "operator": null, "name:en": "Marumori", "name": "丸森", "longitud": 140.762, "latitud": 37.931, "station": null }, "geometry": { "type": "Point", "coordinates": [ 140.762, 37.931 ] } },
{ "type": "Feature", "properties": { "fid": 140, "full_id": "n263246566", "osm_id": 263246566, "railway": "station", "train": null, "operator:en": null, "official_name:ja-Latn": null, "public_transport": "station", "operator": null, "name:en": "Oka", "name": "岡", "longitud": 140.781, "latitud": 38.019, "station": null }, "geometry": { "type": "Point", "coordinates": [ 140.781, 38.019 ] } },
{ "type": "Feature", "properties": { "fid": 141, "full_id": "n263246581", "osm_id": 263246581, "railway": "station", "train": true, "operator:en": null, "official_name:ja-Latn": null, "public_transport": "station", "operator": null, "name:en": "Kabuto", "name": "兜", "longitud": 140.647, "latitud": 37.895, "station": null }, "geometry": { "type": "Point", "coordinates": [ 140.647, 37.895 ] } },
{ "type": "Feature", "properties": { "fid": 142, "full_id": "n263250474", "osm_id": 263250474, "railway": "station", "train": null, "operator:en": null, "official_name:ja-Latn": null, "public_transport": "station", "operator": null, "name:en": "Nakaarai", "name": "中荒井", "longitud": 139.751, "latitud": 37.18, "station": null }, "geometry": { "type": "Point", "coordinates": [ 139.751, 37.18 ] } },
{ "type": "Feature", "properties": { "fid": 143, "full_id": "n263250475", "osm_id": 263250475, "railway": "station", "train": null, "operator:en": null, "official_name:ja-Latn": null, "public_transport": "station", "operator": null, "name:en": "Aizu-Nagano", "name": "会津長野", "longitud": 139.824, "latitud": 37.215, "station": null }, "geometry": { "type": "Point", "coordinates": [ 139.824, 37.215 ] } },
{ "type": "Feature", "properties": { "fid": 144, "full_id": "n263250746", "osm_id": 263250746, "railway": "station", "train": null, "operator:en": null, "official_name:ja-Latn": null, "public_transport": "station", "operator": null, "name:en": "Aizu-Sanson-Dojo", "name": "会津山村道場", "longitud": 139.732, "latitud": 37.145, "station": null }, "geometry": { "type": "Point", "coordinates": [ 139.732, 37.145 ] } },
{ "type": "Feature", "properties": { "fid": 145, "full_id": "n263250750", "osm_id": 263250750, "railway": "station", "train": null, "operator:en": null, "official_name:ja-Latn": null, "public_transport": "station", "operator": null, "name:en": "Okawadamukoen", "name": "大川ダム公園", "longitud": 139.921, "latitud": 37.347, "station": null }, "geometry": { "type": "Point", "coordinates": [ 139.921, 37.347 ] } },
{ "type": "Feature", "properties": { "fid": 146, "full_id": "n263250954", "osm_id": 263250954, "railway": "station", "train": null, "operator:en": null, "official_name:ja-Latn": null, "public_transport": "station", "operator": null, "name:en": "Ashinomaki-Onsen-Minami", "name": "芦ノ牧温泉南", "longitud": 139.919, "latitud": 37.335, "station": null }, "geometry": { "type": "Point", "coordinates": [ 139.919, 37.335 ] } },
{ "type": "Feature", "properties": { "fid": 147, "full_id": "n263251250", "osm_id": 263251250, "railway": "station", "train": null, "operator:en": null, "official_name:ja-Latn": null, "public_transport": "station", "operator": null, "name:en": "Amaya", "name": "あまや", "longitud": 139.918, "latitud": 37.417, "station": null }, "geometry": { "type": "Point", "coordinates": [ 139.918, 37.417 ] } },
{ "type": "Feature", "properties": { "fid": 148, "full_id": "n263251253", "osm_id": 263251253, "railway": "station", "train": true, "operator:en": null, "official_name:ja-Latn": null, "public_transport": "station", "operator": null, "name:en": "Tonohetsuri", "name": "塔のへつり", "longitud": 139.902, "latitud": 37.275, "station": null }, "geometry": { "type": "Point", "coordinates": [ 139.902, 37.275 ] } },
{ "type": "Feature", "properties": { "fid": 149, "full_id": "n263251755", "osm_id": 263251755, "railway": "station", "train": null, "operator:en": null, "official_name:ja-Latn": null, "public_transport": "station", "operator": null, "name:en": "Monden", "name": "門田", "longitud": 139.914, "latitud": 37.442, "station": null }, "geometry": { "type": "Point", "coordinates": [ 139.914, 37.442 ] } },
{ "type": "Feature", "properties": { "fid": 150, "full_id": "n263251760", "osm_id": 263251760, "railway": "station", "train": null, "operator:en": null, "official_name:ja-Latn": null, "public_transport": "station", "operator": null, "name:en": "Aizu-Shimogo", "name": "会津下郷", "longitud": 139.865, "latitud": 37.255, "station": null }, "geometry": { "type": "Point", "coordinates": [ 139.865, 37.255 ] } },
{ "type": "Feature", "properties": { "fid": 151, "full_id": "n263251764", "osm_id": 263251764, "railway": "station", "train": null, "operator:en": null, "official_name:ja-Latn": null, "public_transport": "station", "operator": null, "name:en": "Yoson-Koen", "name": "養鱒公園", "longitud": 139.842, "latitud": 37.225, "station": null }, "geometry": { "type": "Point", "coordinates": [ 139.842, 37.225 ] } },
{ "type": "Feature", "properties": { "fid": 152, "full_id": "n263251955", "osm_id": 263251955, "railway": "station", "train": null, "operator:en": null, "official_name:ja-Latn": null, "public_transport": "station", "operator": null, "name:en": "Furusato-Koen", "name": "ふるさと公園", "longitud": 139.859, "latitud": 37.243, "station": null }, "geometry": { "type": "Point", "coordinates": [ 139.859, 37.243 ] } },
{ "type": "Feature", "properties": { "fid": 153, "full_id": "n263252162", "osm_id": 263252162, "railway": "station", "train": null, "operator:en": null, "official_name:ja-Latn": null, "public_transport": "station", "operator": null, "name:en": "Ashinomaki-Onsen", "name": "芦ノ牧温泉", "longitud": 139.932, "latitud": 37.396, "station": null }, "geometry": { "type": "Point", "coordinates": [ 139.932, 37.396 ] } },
{ "type": "Feature", "properties": { "fid": 154, "full_id": "n263252259", "osm_id": 263252259, "railway": "station", "train": null, "operator:en": null, "official_name:ja-Latn": null, "public_transport": "station", "operator": null, "name:en": "Aizu-Arakai", "name": "会津荒海", "longitud": 139.734, "latitud": 37.154, "station": null }, "geometry": { "type": "Point", "coordinates": [ 139.734, 37.154 ] } },
{ "type": "Feature", "properties": { "fid": 155, "full_id": "n263252396", "osm_id": 263252396, "railway": "station", "train": null, "operator:en": null, "official_name:ja-Latn": null, "public_transport": "station", "operator": null, "name:en": "Tajimakoko-mae", "name": "田島高校前", "longitud": 139.801, "latitud": 37.21, "station": null }, "geometry": { "type": "Point", "coordinates": [ 139.801, 37.21 ] } },
{ "type": "Feature", "properties": { "fid": 156, "full_id": "n263252735", "osm_id": 263252735, "railway": "station", "train": null, "operator:en": null, "official_name:ja-Latn": null, "public_transport": "station", "operator": null, "name:en": "Minami-Wakamatsu", "name": "南若松", "longitud": 139.914, "latitud": 37.459, "station": null }, "geometry": { "type": "Point", "coordinates": [ 139.914, 37.459 ] } },
{ "type": "Feature", "properties": { "fid": 157, "full_id": "n263252928", "osm_id": 263252928, "railway": "station", "train": null, "operator:en": null, "official_name:ja-Latn": null, "public_transport": "station", "operator": null, "name:en": "Yunokami-Onsen", "name": "湯野上温泉", "longitud": 139.895, "latitud": 37.304, "station": null }, "geometry": { "type": "Point", "coordinates": [ 139.895, 37.304 ] } },
{ "type": "Feature", "properties": { "fid": 158, "full_id": "n263253108", "osm_id": 263253108, "railway": "station", "train": null, "operator:en": null, "official_name:ja-Latn": null, "public_transport": "station", "operator": null, "name:en": "Yagoshima", "name": "弥五島", "longitud": 139.89, "latitud": 37.266, "station": null }, "geometry": { "type": "Point", "coordinates": [ 139.89, 37.266 ] } },
{ "type": "Feature", "properties": { "fid": 159, "full_id": "n263253724", "osm_id": 263253724, "railway": "station", "train": null, "operator:en": null, "official_name:ja-Latn": null, "public_transport": "station", "operator": null, "name:en": "Nanatsugatake-Tozanguchi", "name": "七ヶ岳登山口", "longitud": 139.717, "latitud": 37.124, "station": null }, "geometry": { "type": "Point", "coordinates": [ 139.717, 37.124 ] } },
{ "type": "Feature", "properties": { "fid": 160, "full_id": "n263262699", "osm_id": 263262699, "railway": "station", "train": null, "operator:en": null, "official_name:ja-Latn": null, "public_transport": null, "operator": "湘南モノレール", "name:en": "Nishikamakura", "name": "西鎌倉", "longitud": 139.504, "latitud": 35.319, "station": null }, "geometry": { "type": "Point", "coordinates": [ 139.504, 35.319 ] } },
{ "type": "Feature", "properties": { "fid": 161, "full_id": "n263262703", "osm_id": 263262703, "railway": "station", "train": null, "operator:en": null, "official_name:ja-Latn": null, "public_transport": null, "operator": "湘南モノレール", "name:en": "Kataseyama", "name": "片瀬山", "longitud": 139.496, "latitud": 35.317, "station": null }, "geometry": { "type": "Point", "coordinates": [ 139.496, 35.317 ] } },
{ "type": "Feature", "properties": { "fid": 162, "full_id": "n263262803", "osm_id": 263262803, "railway": "station", "train": null, "operator:en": null, "official_name:ja-Latn": null, "public_transport": "station", "operator": "湘南モノレール", "name:en": "Shonan-Fukasawa", "name": "湘南深沢", "longitud": 139.519, "latitud": 35.333, "station": null }, "geometry": { "type": "Point", "coordinates": [ 139.519, 35.333 ] } },
{ "type": "Feature", "properties": { "fid": 163, "full_id": "n263262808", "osm_id": 263262808, "railway": "station", "train": null, "operator:en": null, "official_name:ja-Latn": null, "public_transport": "station", "operator": "湘南モノレール", "name:en": "Shonan-Enoshima", "name": "湘南江の島", "longitud": 139.488, "latitud": 35.312, "station": null }, "geometry": { "type": "Point", "coordinates": [ 139.488, 35.312 ] } },
{ "type": "Feature", "properties": { "fid": 164, "full_id": "n263266685", "osm_id": 263266685, "railway": "station", "train": null, "operator:en": null, "official_name:ja-Latn": null, "public_transport": "station", "operator": "東日本旅客鉄道", "name:en": "Higashi-Zushi", "name": "東逗子", "longitud": 139.601, "latitud": 35.299, "station": null }, "geometry": { "type": "Point", "coordinates": [ 139.601, 35.299 ] } },
{ "type": "Feature", "properties": { "fid": 165, "full_id": "n263267206", "osm_id": 263267206, "railway": "station", "train": null, "operator:en": null, "official_name:ja-Latn": null, "public_transport": "station", "operator": null, "name:en": "Ōfuna", "name": "大船", "longitud": 139.531, "latitud": 35.354, "station": null }, "geometry": { "type": "Point", "coordinates": [ 139.531, 35.354 ] } },
{ "type": "Feature", "properties": { "fid": 166, "full_id": "n263271899", "osm_id": 263271899, "railway": "station", "train": null, "operator:en": "Keikyu Corporation", "official_name:ja-Latn": null, "public_transport": "station", "operator": "京浜急行電鉄", "name:en": "Koyasu", "name": "子安", "longitud": 139.645, "latitud": 35.485, "station": null }, "geometry": { "type": "Point", "coordinates": [ 139.645, 35.485 ] } },
{ "type": "Feature", "properties": { "fid": 167, "full_id": "n263274493", "osm_id": 263274493, "railway": "station", "train": null, "operator:en": "Keikyu Corporation", "official_name:ja-Latn": null, "public_transport": "station", "operator": "京浜急行電鉄 (Keikyu Corporation)", "name:en": "Kanagawa-shimmachi", "name": "神奈川新町", "longitud": 139.64, "latitud": 35.481, "station": null }, "geometry": { "type": "Point", "coordinates": [ 139.64, 35.481 ] } },
{ "type": "Feature", "properties": { "fid": 168, "full_id": "n263274999", "osm_id": 263274999, "railway": "station", "train": null, "operator:en": "Keikyu Corporation", "official_name:ja-Latn": null, "public_transport": "station", "operator": "京浜急行電鉄", "name:en": "Yokohama", "name": "横浜", "longitud": 139.623, "latitud": 35.466, "station": null }, "geometry": { "type": "Point", "coordinates": [ 139.623, 35.466 ] } },
{ "type": "Feature", "properties": { "fid": 169, "full_id": "n263275159", "osm_id": 263275159, "railway": "station", "train": null, "operator:en": null, "official_name:ja-Latn": null, "public_transport": "station", "operator": null, "name:en": "Kanagawa", "name": "神奈川", "longitud": 139.628, "latitud": 35.472, "station": null }, "geometry": { "type": "Point", "coordinates": [ 139.628, 35.472 ] } },
{ "type": "Feature", "properties": { "fid": 170, "full_id": "n263298361", "osm_id": 263298361, "railway": "station", "train": null, "operator:en": "Keikyu Corporation", "official_name:ja-Latn": null, "public_transport": "station", "operator": "京浜急行電鉄", "name:en": "Mutsuura", "name": "六浦", "longitud": 139.611, "latitud": 35.323, "station": null }, "geometry": { "type": "Point", "coordinates": [ 139.611, 35.323 ] } },
{ "type": "Feature", "properties": { "fid": 171, "full_id": "n263306056", "osm_id": 263306056, "railway": "station", "train": null, "operator:en": null, "official_name:ja-Latn": null, "public_transport": "station", "operator": null, "name:en": "Shimanokoshi", "name": "島越", "longitud": 141.94, "latitud": 39.916, "station": null }, "geometry": { "type": "Point", "coordinates": [ 141.94, 39.916 ] } },
{ "type": "Feature", "properties": { "fid": 172, "full_id": "n263306071", "osm_id": 263306071, "railway": "station", "train": null, "operator:en": null, "official_name:ja-Latn": null, "public_transport": "station", "operator": null, "name:en": "Settai", "name": "摂待", "longitud": 141.962, "latitud": 39.81, "station": null }, "geometry": { "type": "Point", "coordinates": [ 141.962, 39.81 ] } },
{ "type": "Feature", "properties": { "fid": 173, "full_id": "n263306090", "osm_id": 263306090, "railway": "station", "train": null, "operator:en": null, "official_name:ja-Latn": null, "public_transport": "station", "operator": null, "name:en": "Ichinowatari", "name": "一の渡", "longitud": 141.943, "latitud": 39.687, "station": null }, "geometry": { "type": "Point", "coordinates": [ 141.943, 39.687 ] } },
{ "type": "Feature", "properties": { "fid": 174, "full_id": "n263306175", "osm_id": 263306175, "railway": "station", "train": null, "operator:en": null, "official_name:ja-Latn": null, "public_transport": "station", "operator": null, "name:en": "Shin-Taro", "name": "新田老", "longitud": 141.967, "latitud": 39.736, "station": null }, "geometry": { "type": "Point", "coordinates": [ 141.967, 39.736 ] } },
{ "type": "Feature", "properties": { "fid": 175, "full_id": "n263306558", "osm_id": 263306558, "railway": "station", "train": null, "operator:en": null, "official_name:ja-Latn": null, "public_transport": "station", "operator": null, "name:en": "Shirai-Kaigan", "name": "白井海岸", "longitud": 141.883, "latitud": 40.033, "station": null }, "geometry": { "type": "Point", "coordinates": [ 141.883, 40.033 ] } },
{ "type": "Feature", "properties": { "fid": 176, "full_id": "n263307225", "osm_id": 263307225, "railway": "station", "train": null, "operator:en": null, "official_name:ja-Latn": null, "public_transport": "station", "operator": null, "name:en": "Sabane", "name": "佐羽根", "longitud": 141.936, "latitud": 39.711, "station": null }, "geometry": { "type": "Point", "coordinates": [ 141.936, 39.711 ] } },
{ "type": "Feature", "properties": { "fid": 177, "full_id": "n263307354", "osm_id": 263307354, "railway": "station", "train": null, "operator:en": null, "official_name:ja-Latn": null, "public_transport": "station", "operator": null, "name:en": "Rikuchuube", "name": "陸中宇部", "longitud": 141.786, "latitud": 40.132, "station": null }, "geometry": { "type": "Point", "coordinates": [ 141.786, 40.132 ] } },
{ "type": "Feature", "properties": { "fid": 178, "full_id": "n263307451", "osm_id": 263307451, "railway": "station", "train": null, "operator:en": null, "official_name:ja-Latn": null, "public_transport": "station", "operator": null, "name:en": "Tofugaurakaigan", "name": "十府ヶ浦海岸", "longitud": 141.824, "latitud": 40.097, "station": null }, "geometry": { "type": "Point", "coordinates": [ 141.824, 40.097 ] } },
{ "type": "Feature", "properties": { "fid": 179, "full_id": "n263307753", "osm_id": 263307753, "railway": "station", "train": null, "operator:en": null, "official_name:ja-Latn": null, "public_transport": "station", "operator": null, "name:en": "Fudai", "name": "普代", "longitud": 141.886, "latitud": 40.003, "station": null }, "geometry": { "type": "Point", "coordinates": [ 141.886, 40.003 ] } },
{ "type": "Feature", "properties": { "fid": 180, "full_id": "n263308003", "osm_id": 263308003, "railway": "station", "train": null, "operator:en": null, "official_name:ja-Latn": null, "public_transport": "station", "operator": null, "name:en": "Iwaizumiomoto", "name": "岩泉小本", "longitud": 141.958, "latitud": 39.843, "station": null }, "geometry": { "type": "Point", "coordinates": [ 141.958, 39.843 ] } },
{ "type": "Feature", "properties": { "fid": 181, "full_id": "n263308639", "osm_id": 263308639, "railway": "station", "train": null, "operator:en": null, "official_name:ja-Latn": null, "public_transport": "station", "operator": null, "name:en": "Tarou", "name": "田老", "longitud": 141.964, "latitud": 39.732, "station": null }, "geometry": { "type": "Point", "coordinates": [ 141.964, 39.732 ] } },
{ "type": "Feature", "properties": { "fid": 182, "full_id": "n263309450", "osm_id": 263309450, "railway": "station", "train": null, "operator:en": null, "official_name:ja-Latn": null, "public_transport": "station", "operator": null, "name:en": "Horinai", "name": "堀内", "longitud": 141.859, "latitud": 40.052, "station": null }, "geometry": { "type": "Point", "coordinates": [ 141.859, 40.052 ] } },
{ "type": "Feature", "properties": { "fid": 183, "full_id": "n263315557", "osm_id": 263315557, "railway": "station", "train": null, "operator:en": null, "official_name:ja-Latn": null, "public_transport": "station", "operator": null, "name:en": "Nodatamagawa", "name": "野田玉川", "longitud": 141.829, "latitud": 40.083, "station": null }, "geometry": { "type": "Point", "coordinates": [ 141.829, 40.083 ] } },
{ "type": "Feature", "properties": { "fid": 184, "full_id": "n263315613", "osm_id": 263315613, "railway": "station", "train": null, "operator:en": null, "official_name:ja-Latn": null, "public_transport": "station", "operator": null, "name:en": "Tanohata", "name": "田野畑", "longitud": 141.934, "latitud": 39.934, "station": null }, "geometry": { "type": "Point", "coordinates": [ 141.934, 39.934 ] } },
{ "type": "Feature", "properties": { "fid": 185, "full_id": "n264167727", "osm_id": 264167727, "railway": "station", "train": null, "operator:en": null, "official_name:ja-Latn": null, "public_transport": "station", "operator": null, "name:en": "Sanriku", "name": "三陸", "longitud": 141.81, "latitud": 39.117, "station": null }, "geometry": { "type": "Point", "coordinates": [ 141.81, 39.117 ] } },
{ "type": "Feature", "properties": { "fid": 186, "full_id": "n264167729", "osm_id": 264167729, "railway": "station", "train": null, "operator:en": null, "official_name:ja-Latn": null, "public_transport": "station", "operator": "三陸鉄道", "name:en": "Rikuzen-Akasaki", "name": "陸前赤崎", "longitud": 141.742, "latitud": 39.068, "station": null }, "geometry": { "type": "Point", "coordinates": [ 141.742, 39.068 ] } },
{ "type": "Feature", "properties": { "fid": 187, "full_id": "n264167730", "osm_id": 264167730, "railway": "station", "train": null, "operator:en": null, "official_name:ja-Latn": null, "public_transport": "station", "operator": "三陸鉄道", "name:en": "Horei", "name": "甫嶺", "longitud": 141.807, "latitud": 39.093, "station": null }, "geometry": { "type": "Point", "coordinates": [ 141.807, 39.093 ] } },
{ "type": "Feature", "properties": { "fid": 188, "full_id": "n264167812", "osm_id": 264167812, "railway": "station", "train": null, "operator:en": null, "official_name:ja-Latn": null, "public_transport": "station", "operator": "三陸鉄道", "name:en": "Yoshihama", "name": "吉浜", "longitud": 141.836, "latitud": 39.151, "station": null }, "geometry": { "type": "Point", "coordinates": [ 141.836, 39.151 ] } },
{ "type": "Feature", "properties": { "fid": 189, "full_id": "n264167813", "osm_id": 264167813, "railway": "station", "train": null, "operator:en": null, "official_name:ja-Latn": null, "public_transport": "station", "operator": "三陸鉄道", "name:en": "Koishihama", "name": "恋し浜", "longitud": 141.816, "latitud": 39.074, "station": null }, "geometry": { "type": "Point", "coordinates": [ 141.816, 39.074 ] } },
{ "type": "Feature", "properties": { "fid": 190, "full_id": "n264167895", "osm_id": 264167895, "railway": "station", "train": null, "operator:en": null, "official_name:ja-Latn": null, "public_transport": "station", "operator": "三陸鉄道", "name:en": "Heita", "name": "平田", "longitud": 141.886, "latitud": 39.246, "station": null }, "geometry": { "type": "Point", "coordinates": [ 141.886, 39.246 ] } },
{ "type": "Feature", "properties": { "fid": 191, "full_id": "n264167942", "osm_id": 264167942, "railway": "station", "train": null, "operator:en": null, "official_name:ja-Latn": null, "public_transport": "station", "operator": "三陸鉄道", "name:en": "Ryori", "name": "綾里", "longitud": 141.799, "latitud": 39.054, "station": null }, "geometry": { "type": "Point", "coordinates": [ 141.799, 39.054 ] } },
{ "type": "Feature", "properties": { "fid": 192, "full_id": "n264170285", "osm_id": 264170285, "railway": "station", "train": true, "operator:en": null, "official_name:ja-Latn": null, "public_transport": "station", "operator": null, "name:en": "Yamanome", "name": "山ノ目", "longitud": 141.132, "latitud": 38.951, "station": null }, "geometry": { "type": "Point", "coordinates": [ 141.132, 38.951 ] } },
{ "type": "Feature", "properties": { "fid": 193, "full_id": "n264170299", "osm_id": 264170299, "railway": "station", "train": true, "operator:en": null, "official_name:ja-Latn": null, "public_transport": "station", "operator": null, "name:en": "Tajiri", "name": "田尻", "longitud": 141.059, "latitud": 38.596, "station": null }, "geometry": { "type": "Point", "coordinates": [ 141.059, 38.596 ] } },
{ "type": "Feature", "properties": { "fid": 194, "full_id": "n264170585", "osm_id": 264170585, "railway": "station", "train": true, "operator:en": null, "official_name:ja-Latn": null, "public_transport": "station", "operator": null, "name:en": "Nitta", "name": "新田", "longitud": 141.12, "latitud": 38.712, "station": null }, "geometry": { "type": "Point", "coordinates": [ 141.12, 38.712 ] } },
{ "type": "Feature", "properties": { "fid": 195, "full_id": "n264170614", "osm_id": 264170614, "railway": "station", "train": true, "operator:en": null, "official_name:ja-Latn": null, "public_transport": "station", "operator": null, "name:en": "Hiraizumi", "name": "平泉", "longitud": 141.118, "latitud": 38.988, "station": null }, "geometry": { "type": "Point", "coordinates": [ 141.118, 38.988 ] } },
{ "type": "Feature", "properties": { "fid": 196, "full_id": "n264171726", "osm_id": 264171726, "railway": "station", "train": true, "operator:en": null, "official_name:ja-Latn": null, "public_transport": "station", "operator": null, "name:en": "Shimizuhara", "name": "清水原", "longitud": 141.157, "latitud": 38.855, "station": null }, "geometry": { "type": "Point", "coordinates": [ 141.157, 38.855 ] } },
{ "type": "Feature", "properties": { "fid": 197, "full_id": "n264172570", "osm_id": 264172570, "railway": "station", "train": true, "operator:en": null, "official_name:ja-Latn": null, "public_transport": "station", "operator": null, "name:en": "Rikuchu-Orii", "name": "陸中折居", "longitud": 141.141, "latitud": 39.094, "station": null }, "geometry": { "type": "Point", "coordinates": [ 141.141, 39.094 ] } },
{ "type": "Feature", "properties": { "fid": 198, "full_id": "n264172881", "osm_id": 264172881, "railway": "station", "train": true, "operator:en": null, "official_name:ja-Latn": null, "public_transport": "station", "operator": null, "name:en": "Shinainuma", "name": "品井沼", "longitud": 141.082, "latitud": 38.432, "station": null }, "geometry": { "type": "Point", "coordinates": [ 141.082, 38.432 ] } },
{ "type": "Feature", "properties": { "fid": 199, "full_id": "n264173247", "osm_id": 264173247, "railway": "station", "train": true, "operator:en": null, "official_name:ja-Latn": null, "public_transport": "station", "operator": null, "name:en": "Maesawa", "name": "前沢", "longitud": 141.126, "latitud": 39.048, "station": null }, "geometry": { "type": "Point", "coordinates": [ 141.126, 39.048 ] } },
{ "type": "Feature", "properties": { "fid": 200, "full_id": "n264173718", "osm_id": 264173718, "railway": "station", "train": true, "operator:en": null, "official_name:ja-Latn": null, "public_transport": "station", "operator": null, "name:en": "Umegasawa", "name": "梅ヶ沢", "longitud": 141.086, "latitud": 38.682, "station": null }, "geometry": { "type": "Point", "coordinates": [ 141.086, 38.682 ] } },
{ "type": "Feature", "properties": { "fid": 201, "full_id": "n264173827", "osm_id": 264173827, "railway": "station", "train": true, "operator:en": null, "official_name:ja-Latn": null, "public_transport": "station", "operator": null, "name:en": "Matsuyamamachi", "name": "松山町", "longitud": 141.075, "latitud": 38.512, "station": null }, "geometry": { "type": "Point", "coordinates": [ 141.075, 38.512 ] } },
{ "type": "Feature", "properties": { "fid": 202, "full_id": "n264174370", "osm_id": 264174370, "railway": "station", "train": true, "operator:en": null, "official_name:ja-Latn": null, "public_transport": "station", "operator": null, "name:en": "Arikabe", "name": "有壁", "longitud": 141.121, "latitud": 38.867, "station": null }, "geometry": { "type": "Point", "coordinates": [ 141.121, 38.867 ] } },
{ "type": "Feature", "properties": { "fid": 203, "full_id": "n264175299", "osm_id": 264175299, "railway": "station", "train": true, "operator:en": null, "official_name:ja-Latn": null, "public_transport": "station", "operator": "東日本旅客鉄道", "name:en": "Funaoka", "name": "船岡", "longitud": 140.768, "latitud": 38.059, "station": null }, "geometry": { "type": "Point", "coordinates": [ 140.768, 38.059 ] } },
{ "type": "Feature", "properties": { "fid": 204, "full_id": "n264176370", "osm_id": 264176370, "railway": "station", "train": true, "operator:en": null, "official_name:ja-Latn": null, "public_transport": "station", "operator": null, "name:en": "Ogawara", "name": "大河原", "longitud": 140.74, "latitud": 38.047, "station": null }, "geometry": { "type": "Point", "coordinates": [ 140.74, 38.047 ] } },
{ "type": "Feature", "properties": { "fid": 205, "full_id": "n264176799", "osm_id": 264176799, "railway": "station", "train": true, "operator:en": null, "official_name:ja-Latn": null, "public_transport": "station", "operator": null, "name:en": "Kanayagawa", "name": "金谷川", "longitud": 140.452, "latitud": 37.681, "station": null }, "geometry": { "type": "Point", "coordinates": [ 140.452, 37.681 ] } },
{ "type": "Feature", "properties": { "fid": 206, "full_id": "n264177037", "osm_id": 264177037, "railway": "station", "train": true, "operator:en": null, "official_name:ja-Latn": null, "public_transport": "station", "operator": null, "name:en": "Matsukawa", "name": "松川", "longitud": 140.484, "latitud": 37.654, "station": null }, "geometry": { "type": "Point", "coordinates": [ 140.484, 37.654 ] } },
{ "type": "Feature", "properties": { "fid": 207, "full_id": "n264177181", "osm_id": 264177181, "railway": "station", "train": true, "operator:en": null, "official_name:ja-Latn": null, "public_transport": "station", "operator": "東日本旅客鉄道", "name:en": "Adachi", "name": "安達", "longitud": 140.466, "latitud": 37.612, "station": null }, "geometry": { "type": "Point", "coordinates": [ 140.466, 37.612 ] } },
{ "type": "Feature", "properties": { "fid": 208, "full_id": "n264177195", "osm_id": 264177195, "railway": "station", "train": true, "operator:en": null, "official_name:ja-Latn": null, "public_transport": "station", "operator": null, "name:en": "Hiwada", "name": "日和田", "longitud": 140.388, "latitud": 37.446, "station": null }, "geometry": { "type": "Point", "coordinates": [ 140.388, 37.446 ] } },
{ "type": "Feature", "properties": { "fid": 209, "full_id": "n264177271", "osm_id": 264177271, "railway": "station", "train": true, "operator:en": null, "official_name:ja-Latn": null, "public_transport": "station", "operator": null, "name:en": "Gohyakugawa", "name": "五百川", "longitud": 140.388, "latitud": 37.483, "station": null }, "geometry": { "type": "Point", "coordinates": [ 140.388, 37.483 ] } },
{ "type": "Feature", "properties": { "fid": 210, "full_id": "n264177536", "osm_id": 264177536, "railway": "station", "train": true, "operator:en": null, "official_name:ja-Latn": null, "public_transport": "station", "operator": null, "name:en": "Kutano", "name": "久田野", "longitud": 140.26, "latitud": 37.137, "station": null }, "geometry": { "type": "Point", "coordinates": [ 140.26, 37.137 ] } },
{ "type": "Feature", "properties": { "fid": 211, "full_id": "n264177583", "osm_id": 264177583, "railway": "station", "train": true, "operator:en": null, "official_name:ja-Latn": null, "public_transport": "station", "operator": null, "name:en": "Shirakawa", "name": "白河", "longitud": 140.213, "latitud": 37.13, "station": null }, "geometry": { "type": "Point", "coordinates": [ 140.213, 37.13 ] } },
{ "type": "Feature", "properties": { "fid": 212, "full_id": "n264178068", "osm_id": 264178068, "railway": "station", "train": true, "operator:en": null, "official_name:ja-Latn": null, "public_transport": "station", "operator": null, "name:en": "Nihonmatsu", "name": "二本松", "longitud": 140.436, "latitud": 37.589, "station": null }, "geometry": { "type": "Point", "coordinates": [ 140.436, 37.589 ] } },
{ "type": "Feature", "properties": { "fid": 213, "full_id": "n264178071", "osm_id": 264178071, "railway": "station", "train": true, "operator:en": null, "official_name:ja-Latn": null, "public_transport": "station", "operator": null, "name:en": "Izumizaki", "name": "泉崎", "longitud": 140.299, "latitud": 37.158, "station": null }, "geometry": { "type": "Point", "coordinates": [ 140.299, 37.158 ] } },
{ "type": "Feature", "properties": { "fid": 214, "full_id": "n264180326", "osm_id": 264180326, "railway": "station", "train": true, "operator:en": null, "official_name:ja-Latn": null, "public_transport": "station", "operator": null, "name:en": "Kurodahara", "name": "黒田原", "longitud": 140.12, "latitud": 37.023, "station": null }, "geometry": { "type": "Point", "coordinates": [ 140.12, 37.023 ] } },
{ "type": "Feature", "properties": { "fid": 215, "full_id": "n264180767", "osm_id": 264180767, "railway": "station", "train": true, "operator:en": null, "official_name:ja-Latn": null, "public_transport": "station", "operator": null, "name:en": "Sugita", "name": "杉田", "longitud": 140.414, "latitud": 37.563, "station": null }, "geometry": { "type": "Point", "coordinates": [ 140.414, 37.563 ] } },
{ "type": "Feature", "properties": { "fid": 216, "full_id": "n264180828", "osm_id": 264180828, "railway": "station", "train": true, "operator:en": null, "official_name:ja-Latn": null, "public_transport": "station", "operator": null, "name:en": "Kamasusaka", "name": "蒲須坂", "longitud": 139.95, "latitud": 36.721, "station": null }, "geometry": { "type": "Point", "coordinates": [ 139.95, 36.721 ] } },
{ "type": "Feature", "properties": { "fid": 217, "full_id": "n264181231", "osm_id": 264181231, "railway": "station", "train": true, "operator:en": null, "official_name:ja-Latn": null, "public_transport": "station", "operator": null, "name:en": "Toyohara", "name": "豊原", "longitud": 140.156, "latitud": 37.055, "station": null }, "geometry": { "type": "Point", "coordinates": [ 140.156, 37.055 ] } },
{ "type": "Feature", "properties": { "fid": 218, "full_id": "n264183498", "osm_id": 264183498, "railway": "station", "train": true, "operator:en": null, "official_name:ja-Latn": null, "public_transport": "station", "operator": null, "name:en": "Nozaki", "name": "野崎", "longitud": 139.958, "latitud": 36.844, "station": null }, "geometry": { "type": "Point", "coordinates": [ 139.958, 36.844 ] } },
{ "type": "Feature", "properties": { "fid": 219, "full_id": "n264183592", "osm_id": 264183592, "railway": "station", "train": true, "operator:en": null, "official_name:ja-Latn": null, "public_transport": "station", "operator": null, "name:en": "Ujiie", "name": "氏家", "longitud": 139.962, "latitud": 36.681, "station": null }, "geometry": { "type": "Point", "coordinates": [ 139.962, 36.681 ] } },
{ "type": "Feature", "properties": { "fid": 220, "full_id": "n264184513", "osm_id": 264184513, "railway": "station", "train": null, "operator:en": "East Japan Railway Company", "official_name:ja-Latn": null, "public_transport": "station", "operator": "東日本旅客鉄道", "name:en": "Mamada", "name": "間々田", "longitud": 139.761, "latitud": 36.258, "station": null }, "geometry": { "type": "Point", "coordinates": [ 139.761, 36.258 ] } },
{ "type": "Feature", "properties": { "fid": 221, "full_id": "n264186812", "osm_id": 264186812, "railway": "station", "train": null, "operator:en": null, "official_name:ja-Latn": null, "public_transport": "station", "operator": null, "name:en": "Kogawara", "name": "小川原", "longitud": 141.301, "latitud": 40.709, "station": null }, "geometry": { "type": "Point", "coordinates": [ 141.301, 40.709 ] } },
{ "type": "Feature", "properties": { "fid": 222, "full_id": "n264186817", "osm_id": 264186817, "railway": "station", "train": null, "operator:en": null, "official_name:ja-Latn": null, "public_transport": "station", "operator": null, "name:en": "Nishi-Hiranai", "name": "西平内", "longitud": 140.913, "latitud": 40.918, "station": null }, "geometry": { "type": "Point", "coordinates": [ 140.913, 40.918 ] } },
{ "type": "Feature", "properties": { "fid": 223, "full_id": "n264186859", "osm_id": 264186859, "railway": "station", "train": null, "operator:en": null, "official_name:ja-Latn": null, "public_transport": "station", "operator": null, "name:en": "Kominato", "name": "小湊", "longitud": 140.955, "latitud": 40.93, "station": null }, "geometry": { "type": "Point", "coordinates": [ 140.955, 40.93 ] } },
{ "type": "Feature", "properties": { "fid": 224, "full_id": "n264187311", "osm_id": 264187311, "railway": "station", "train": null, "operator:en": null, "official_name:ja-Latn": null, "public_transport": "station", "operator": null, "name:en": "Mukaiyama", "name": "向山", "longitud": 141.371, "latitud": 40.63, "station": null }, "geometry": { "type": "Point", "coordinates": [ 141.371, 40.63 ] } },
{ "type": "Feature", "properties": { "fid": 225, "full_id": "n264187661", "osm_id": 264187661, "railway": "station", "train": null, "operator:en": null, "official_name:ja-Latn": null, "public_transport": "station", "operator": null, "name:en": "Shimizugawa", "name": "清水川", "longitud": 141.024, "latitud": 40.922, "station": null }, "geometry": { "type": "Point", "coordinates": [ 141.024, 40.922 ] } },
{ "type": "Feature", "properties": { "fid": 226, "full_id": "n264187734", "osm_id": 264187734, "railway": "station", "train": null, "operator:en": null, "official_name:ja-Latn": null, "public_transport": "station", "operator": null, "name:en": "Ottomo", "name": "乙供", "longitud": 141.213, "latitud": 40.78, "station": null }, "geometry": { "type": "Point", "coordinates": [ 141.213, 40.78 ] } },
{ "type": "Feature", "properties": { "fid": 227, "full_id": "n264188105", "osm_id": 264188105, "railway": "station", "train": null, "operator:en": null, "official_name:ja-Latn": null, "public_transport": "station", "operator": null, "name:en": "Kamikitacho", "name": "上北町", "longitud": 141.265, "latitud": 40.732, "station": null }, "geometry": { "type": "Point", "coordinates": [ 141.265, 40.732 ] } },
{ "type": "Feature", "properties": { "fid": 228, "full_id": "n264188264", "osm_id": 264188264, "railway": "station", "train": null, "operator:en": null, "official_name:ja-Latn": null, "public_transport": "station", "operator": null, "name:en": "Chibiki", "name": "千曳", "longitud": 141.153, "latitud": 40.805, "station": null }, "geometry": { "type": "Point", "coordinates": [ 141.153, 40.805 ] } },
{ "type": "Feature", "properties": { "fid": 229, "full_id": "n264188538", "osm_id": 264188538, "railway": "station", "train": null, "operator:en": null, "official_name:ja-Latn": null, "public_transport": "station", "operator": null, "name:en": "Yadamae", "name": "矢田前", "longitud": 140.807, "latitud": 40.834, "station": null }, "geometry": { "type": "Point", "coordinates": [ 140.807, 40.834 ] } },
{ "type": "Feature", "properties": { "fid": 230, "full_id": "n264189521", "osm_id": 264189521, "railway": "station", "train": null, "operator:en": null, "official_name:ja-Latn": null, "public_transport": null, "operator": null, "name:en": "Izu-Okawa", "name": "伊豆大川", "longitud": 139.074, "latitud": 34.844, "station": null }, "geometry": { "type": "Point", "coordinates": [ 139.074, 34.844 ] } },
{ "type": "Feature", "properties": { "fid": 231, "full_id": "n264190281", "osm_id": 264190281, "railway": "station", "train": null, "operator:en": null, "official_name:ja-Latn": null, "public_transport": null, "operator": null, "name:en": "Futo", "name": "富戸", "longitud": 139.131, "latitud": 34.909, "station": null }, "geometry": { "type": "Point", "coordinates": [ 139.131, 34.909 ] } },
{ "type": "Feature", "properties": { "fid": 232, "full_id": "n264191014", "osm_id": 264191014, "railway": "station", "train": null, "operator:en": null, "official_name:ja-Latn": null, "public_transport": null, "operator": null, "name:en": "Rendaiji", "name": "蓮台寺", "longitud": 138.941, "latitud": 34.7, "station": null }, "geometry": { "type": "Point", "coordinates": [ 138.941, 34.7 ] } },
{ "type": "Feature", "properties": { "fid": 233, "full_id": "n264199402", "osm_id": 264199402, "railway": "station", "train": null, "operator:en": null, "official_name:ja-Latn": null, "public_transport": "station", "operator": null, "name:en": "Jukkoku-noboriguchi", "name": "十国登り口", "longitud": 139.038, "latitud": 35.128, "station": null }, "geometry": { "type": "Point", "coordinates": [ 139.038, 35.128 ] } },
{ "type": "Feature", "properties": { "fid": 234, "full_id": "n264199403", "osm_id": 264199403, "railway": "station", "train": null, "operator:en": null, "official_name:ja-Latn": null, "public_transport": "station", "operator": null, "name:en": "Jukkoku Pass", "name": "十国峠", "longitud": 139.041, "latitud": 35.128, "station": null }, "geometry": { "type": "Point", "coordinates": [ 139.041, 35.128 ] } },
{ "type": "Feature", "properties": { "fid": 235, "full_id": "n264199875", "osm_id": 264199875, "railway": "station", "train": null, "operator:en": null, "official_name:ja-Latn": null, "public_transport": "station", "operator": null, "name:en": "Anabe", "name": "穴部", "longitud": 139.148, "latitud": 35.28, "station": null }, "geometry": { "type": "Point", "coordinates": [ 139.148, 35.28 ] } },
{ "type": "Feature", "properties": { "fid": 236, "full_id": "n264199894", "osm_id": 264199894, "railway": "station", "train": null, "operator:en": null, "official_name:ja-Latn": null, "public_transport": "station", "operator": null, "name:en": "Wadagahara", "name": "和田河原", "longitud": 139.118, "latitud": 35.316, "station": null }, "geometry": { "type": "Point", "coordinates": [ 139.118, 35.316 ] } },
{ "type": "Feature", "properties": { "fid": 237, "full_id": "n264199904", "osm_id": 264199904, "railway": "station", "train": null, "operator:en": null, "official_name:ja-Latn": null, "public_transport": "station", "operator": null, "name:en": "Fujifilm-mae", "name": "富士フイルム前", "longitud": 139.109, "latitud": 35.318, "station": null }, "geometry": { "type": "Point", "coordinates": [ 139.109, 35.318 ] } },
{ "type": "Feature", "properties": { "fid": 238, "full_id": "n264199924", "osm_id": 264199924, "railway": "station", "train": null, "operator:en": null, "official_name:ja-Latn": null, "public_transport": "station", "operator": null, "name:en": "Gohyakurakan", "name": "五百羅漢", "longitud": 139.156, "latitud": 35.275, "station": null }, "geometry": { "type": "Point", "coordinates": [ 139.156, 35.275 ] } },
{ "type": "Feature", "properties": { "fid": 239, "full_id": "n264199929", "osm_id": 264199929, "railway": "station", "train": null, "operator:en": null, "official_name:ja-Latn": null, "public_transport": "station", "operator": null, "name:en": "Iidaoka", "name": "飯田岡", "longitud": 139.139, "latitud": 35.288, "station": null }, "geometry": { "type": "Point", "coordinates": [ 139.139, 35.288 ] } },
{ "type": "Feature", "properties": { "fid": 240, "full_id": "n264199933", "osm_id": 264199933, "railway": "station", "train": null, "operator:en": null, "official_name:ja-Latn": null, "public_transport": "station", "operator": null, "name:en": "Sagami-Numata", "name": "相模沼田", "longitud": 139.134, "latitud": 35.292, "station": null }, "geometry": { "type": "Point", "coordinates": [ 139.134, 35.292 ] } },
{ "type": "Feature", "properties": { "fid": 241, "full_id": "n264199946", "osm_id": 264199946, "railway": "station", "train": null, "operator:en": null, "official_name:ja-Latn": null, "public_transport": "station", "operator": null, "name:en": "Tsukahara", "name": "塚原", "longitud": 139.126, "latitud": 35.302, "station": null }, "geometry": { "type": "Point", "coordinates": [ 139.126, 35.302 ] } },
{ "type": "Feature", "properties": { "fid": 242, "full_id": "n264199961", "osm_id": 264199961, "railway": "station", "train": null, "operator:en": null, "official_name:ja-Latn": null, "public_transport": "station", "operator": null, "name:en": "Isaida", "name": "井細田", "longitud": 139.157, "latitud": 35.269, "station": null }, "geometry": { "type": "Point", "coordinates": [ 139.157, 35.269 ] } },
{ "type": "Feature", "properties": { "fid": 243, "full_id": "n264199994", "osm_id": 264199994, "railway": "station", "train": true, "operator:en": null, "official_name:ja-Latn": null, "public_transport": "station", "operator": "伊豆箱根鉄道", "name:en": "Daiyuzan", "name": "大雄山", "longitud": 139.103, "latitud": 35.319, "station": null }, "geometry": { "type": "Point", "coordinates": [ 139.103, 35.319 ] } },
{ "type": "Feature", "properties": { "fid": 244, "full_id": "n264199996", "osm_id": 264199996, "railway": "station", "train": null, "operator:en": null, "official_name:ja-Latn": null, "public_transport": "station", "operator": null, "name:en": "Iwahara", "name": "岩原", "longitud": 139.128, "latitud": 35.299, "station": null }, "geometry": { "type": "Point", "coordinates": [ 139.128, 35.299 ] } },
{ "type": "Feature", "properties": { "fid": 245, "full_id": "n264200042", "osm_id": 264200042, "railway": "station", "train": null, "operator:en": null, "official_name:ja-Latn": null, "public_transport": "station", "operator": null, "name:en": "Midoricho", "name": "緑町", "longitud": 139.159, "latitud": 35.26, "station": null }, "geometry": { "type": "Point", "coordinates": [ 139.159, 35.26 ] } },
{ "type": "Feature", "properties": { "fid": 246, "full_id": "n264200622", "osm_id": 264200622, "railway": "station", "train": null, "operator:en": null, "official_name:ja-Latn": null, "public_transport": "station", "operator": null, "name:en": "Mishima-Tamachi", "name": "三島田町", "longitud": 138.918, "latitud": 35.116, "station": null }, "geometry": { "type": "Point", "coordinates": [ 138.918, 35.116 ] } },
{ "type": "Feature", "properties": { "fid": 247, "full_id": "n264201692", "osm_id": 264201692, "railway": "station", "train": null, "operator:en": null, "official_name:ja-Latn": null, "public_transport": "station", "operator": null, "name:en": "Kinomiya", "name": "来宮", "longitud": 139.066, "latitud": 35.099, "station": null }, "geometry": { "type": "Point", "coordinates": [ 139.066, 35.099 ] } },